{
"type": "FeatureCollection",
"name": "analysis.epci_labels",
"crs": { "type": "name", "properties": { "name": "urn:ogc:def:crs:OGC:1.3:CRS84" } },
"features": [
{ "type": "Feature", "properties": { "code": "200000172", "nom": "CC Faucigny - Glières" }, "geometry": { "type": "Point", "coordinates": [ 6.388117202636719, 45.992052914550783 ] } },
{ "type": "Feature", "properties": { "code": "200000438", "nom": "CC du Pays de Pontchâteau St-Gildas-des-Bois" }, "geometry": { "type": "Point", "coordinates": [ -2.043520629882813, 47.497032176757799 ] } },
{ "type": "Feature", "properties": { "code": "200000545", "nom": "CC des Portes de Romilly sur Seine" }, "geometry": { "type": "Point", "coordinates": [ 3.671241935546875, 48.498804447265627 ] } },
{ "type": "Feature", "properties": { "code": "200000628", "nom": "CC Rhône Lez Provence" }, "geometry": { "type": "Point", "coordinates": [ 4.721925783203124, 44.26679238476563 ] } },
{ "type": "Feature", "properties": { "code": "200000800", "nom": "CC Coeur de Sologne" }, "geometry": { "type": "Point", "coordinates": [ 2.0227540625, 47.609699562499998 ] } },
{ "type": "Feature", "properties": { "code": "200000925", "nom": "CC de la Plaine Dijonnaise" }, "geometry": { "type": "Point", "coordinates": [ 5.247706852050783, 47.246681765136721 ] } },
{ "type": "Feature", "properties": { "code": "241400555", "nom": "CC de Bayeux Intercom" }, "geometry": { "type": "Point", "coordinates": [ -0.692644073730469, 49.262805858886729 ] } },
{ "type": "Feature", "properties": { "code": "200000933", "nom": "CC Sauldre et Sologne" }, "geometry": { "type": "Point", "coordinates": [ 2.4087696015625, 47.458135835937505 ] } },
{ "type": "Feature", "properties": { "code": "200004802", "nom": "CC du Pays de Fayence" }, "geometry": { "type": "Point", "coordinates": [ 6.710612199218749, 43.599242558593751 ] } },
{ "type": "Feature", "properties": { "code": "240900464", "nom": "CC du Pays d'Olmes" }, "geometry": { "type": "Point", "coordinates": [ 1.801674755859375, 42.901110345703138 ] } },
{ "type": "Feature", "properties": { "code": "240600593", "nom": "CC du Pays des Paillons" }, "geometry": { "type": "Point", "coordinates": [ 7.357288293945312, 43.826988331054679 ] } },
{ "type": "Feature", "properties": { "code": "200005932", "nom": "CC des Portes de Sologne" }, "geometry": { "type": "Point", "coordinates": [ 2.027253635742188, 47.732917993164058 ] } },
{ "type": "Feature", "properties": { "code": "200005957", "nom": "CC de la Région de Rambervillers" }, "geometry": { "type": "Point", "coordinates": [ 6.665630230468748, 48.347541558593747 ] } },
{ "type": "Feature", "properties": { "code": "200033090", "nom": "CC Plaines et Monts de France" }, "geometry": { "type": "Point", "coordinates": [ 2.754023977050781, 48.990000980957028 ] } },
{ "type": "Feature", "properties": { "code": "200006682", "nom": "CA Beaune, Côte et Sud - Communauté Beaune-Chagny-Nolay" }, "geometry": { "type": "Point", "coordinates": [ 4.817935561523435, 47.019732057617198 ] } },
{ "type": "Feature", "properties": { "code": "200006716", "nom": "CC du Nogentais" }, "geometry": { "type": "Point", "coordinates": [ 3.549212962890625, 48.528454400390636 ] } },
{ "type": "Feature", "properties": { "code": "200006930", "nom": "CC du Haut Allier Margeride" }, "geometry": { "type": "Point", "coordinates": [ 3.837826359863281, 44.644160512207037 ] } },
{ "type": "Feature", "properties": { "code": "200006971", "nom": "CC du Perche" }, "geometry": { "type": "Point", "coordinates": [ 0.886332100585937, 48.273712598632805 ] } },
{ "type": "Feature", "properties": { "code": "200007052", "nom": "CC de la Marche Berrichonne" }, "geometry": { "type": "Point", "coordinates": [ 1.848803598144531, 46.490269423339846 ] } },
{ "type": "Feature", "properties": { "code": "200034197", "nom": "CC de Montaigne Montravel et Gurson" }, "geometry": { "type": "Point", "coordinates": [ 0.119571762207031, 44.903512907714855 ] } },
{ "type": "Feature", "properties": { "code": "200007177", "nom": "CC Pays de Nérondes" }, "geometry": { "type": "Point", "coordinates": [ 2.789229644042968, 46.951680307128896 ] } },
{ "type": "Feature", "properties": { "code": "200034023", "nom": "CC Tarn-Agout" }, "geometry": { "type": "Point", "coordinates": [ 1.8039586484375, 43.674051289062497 ] } },
{ "type": "Feature", "properties": { "code": "200010650", "nom": "CA du Grand Dole" }, "geometry": { "type": "Point", "coordinates": [ 5.512011072753906, 47.118235699707029 ] } },
{ "type": "Feature", "properties": { "code": "200010700", "nom": "CA Caux Seine Agglo" }, "geometry": { "type": "Point", "coordinates": [ 0.540114977539062, 49.566099811523436 ] } },
{ "type": "Feature", "properties": { "code": "200011773", "nom": "CA Annemasse-Les Voirons-Agglomération" }, "geometry": { "type": "Point", "coordinates": [ 6.313633715332033, 46.197884671386717 ] } },
{ "type": "Feature", "properties": { "code": "200011781", "nom": "CC Portes du Berry entre Loire et Val d'Aubois" }, "geometry": { "type": "Point", "coordinates": [ 2.981196913574219, 46.968194947753915 ] } },
{ "type": "Feature", "properties": { "code": "240700864", "nom": "CC du Rhône aux Gorges de l'Ardèche" }, "geometry": { "type": "Point", "coordinates": [ 4.606640784667968, 44.41649849658203 ] } },
{ "type": "Feature", "properties": { "code": "200013050", "nom": "CC Sauer-Pechelbronn" }, "geometry": { "type": "Point", "coordinates": [ 7.775233987792968, 48.995683412597643 ] } },
{ "type": "Feature", "properties": { "code": "200027548", "nom": "CC des Savanes" }, "geometry": { "type": "Point", "coordinates": [ -52.981968925781246, 4.95183972265625 ] } },
{ "type": "Feature", "properties": { "code": "240800862", "nom": "CC des Crêtes Préardennaises" }, "geometry": { "type": "Point", "coordinates": [ 4.616437855957031, 49.583072989746086 ] } },
{ "type": "Feature", "properties": { "code": "200015162", "nom": "CC de l'Oriente" }, "geometry": { "type": "Point", "coordinates": [ 9.450047262207031, 42.187051372558585 ] } },
{ "type": "Feature", "properties": { "code": "200030195", "nom": "Métropole Nice Côte d'Azur" }, "geometry": { "type": "Point", "coordinates": [ 7.222669265625001, 44.037068828125001 ] } },
{ "type": "Feature", "properties": { "code": "200016905", "nom": "CC du Pays de Lamastre" }, "geometry": { "type": "Point", "coordinates": [ 4.538714449218751, 44.993642871093755 ] } },
{ "type": "Feature", "properties": { "code": "240900431", "nom": "CC du Pays de Tarascon" }, "geometry": { "type": "Point", "coordinates": [ 1.569723711425781, 42.84412401123047 ] } },
{ "type": "Feature", "properties": { "code": "200017341", "nom": "CC Lodévois et Larzac" }, "geometry": { "type": "Point", "coordinates": [ 3.352025066894532, 43.784160090332023 ] } },
{ "type": "Feature", "properties": { "code": "200017846", "nom": "CA Étampois Sud Essonne" }, "geometry": { "type": "Point", "coordinates": [ 2.069146134765625, 48.381273712890625 ] } },
{ "type": "Feature", "properties": { "code": "200018083", "nom": "CC de Desvres-Samer" }, "geometry": { "type": "Point", "coordinates": [ 1.822776649414062, 50.687926045898443 ] } },
{ "type": "Feature", "properties": { "code": "200023778", "nom": "CA du Pays de Saint-Gilles-Croix-de-Vie" }, "geometry": { "type": "Point", "coordinates": [ -1.853196232421875, 46.70616483007813 ] } },
{ "type": "Feature", "properties": { "code": "200018166", "nom": "CC Le Grésivaudan" }, "geometry": { "type": "Point", "coordinates": [ 6.005569253417968, 45.340111564941402 ] } },
{ "type": "Feature", "properties": { "code": "200018406", "nom": "CC du Romorantinais et du Monestois" }, "geometry": { "type": "Point", "coordinates": [ 1.78630558984375, 47.320653894531254 ] } },
{ "type": "Feature", "properties": { "code": "200018521", "nom": "CC du Val de Bouzanne" }, "geometry": { "type": "Point", "coordinates": [ 1.774217461914062, 46.59703696191405 ] } },
{ "type": "Feature", "properties": { "code": "241800432", "nom": "CC les Trois Provinces" }, "geometry": { "type": "Point", "coordinates": [ 2.835239829589844, 46.817284452636727 ] } },
{ "type": "Feature", "properties": { "code": "200018653", "nom": "CA CAP Excellence" }, "geometry": { "type": "Point", "coordinates": [ -61.514824531250014, 16.269417843749999 ] } },
{ "type": "Feature", "properties": { "code": "200022986", "nom": "CC du Grand Pic Saint-Loup" }, "geometry": { "type": "Point", "coordinates": [ 3.798300248535156, 43.790367978027348 ] } },
{ "type": "Feature", "properties": { "code": "200023075", "nom": "CC du Pays de Maîche" }, "geometry": { "type": "Point", "coordinates": [ 6.841130708984376, 47.273562080078129 ] } },
{ "type": "Feature", "properties": { "code": "200023125", "nom": "CC Les Portes Briardes Entre Villes et Forêts" }, "geometry": { "type": "Point", "coordinates": [ 2.629528371093751, 48.741022800781252 ] } },
{ "type": "Feature", "properties": { "code": "200023240", "nom": "CC Pays de Nemours" }, "geometry": { "type": "Point", "coordinates": [ 2.65280436669922, 48.27391197119141 ] } },
{ "type": "Feature", "properties": { "code": "200023299", "nom": "CC Coeur de Tarentaise" }, "geometry": { "type": "Point", "coordinates": [ 6.474534210937501, 45.374403039062514 ] } },
{ "type": "Feature", "properties": { "code": "200023307", "nom": "CA du Grand Villeneuvois" }, "geometry": { "type": "Point", "coordinates": [ 0.70453630859375, 44.39080021484375 ] } },
{ "type": "Feature", "properties": { "code": "200023372", "nom": "CC de la Vallée de Chamonix-Mont-Blanc" }, "geometry": { "type": "Point", "coordinates": [ 6.919065016601562, 45.944506807617188 ] } },
{ "type": "Feature", "properties": { "code": "200023794", "nom": "CC de Blaye" }, "geometry": { "type": "Point", "coordinates": [ -0.636005521484375, 45.103223517578122 ] } },
{ "type": "Feature", "properties": { "code": "249720053", "nom": "CA de l'Espace Sud de la Martinique" }, "geometry": { "type": "Point", "coordinates": [ -60.911060102050776, 14.537901269042971 ] } },
{ "type": "Feature", "properties": { "code": "200023414", "nom": "Métropole Rouen Normandie" }, "geometry": { "type": "Point", "coordinates": [ 1.109923625488281, 49.420527981933596 ] } },
{ "type": "Feature", "properties": { "code": "200023737", "nom": "CA du Grand Cahors" }, "geometry": { "type": "Point", "coordinates": [ 1.427635273925781, 44.495806249511716 ] } },
{ "type": "Feature", "properties": { "code": "200054807", "nom": "Métropole d'Aix-Marseille-Provence" }, "geometry": { "type": "Point", "coordinates": [ 5.480240390625001, 43.485833203124997 ] } },
{ "type": "Feature", "properties": { "code": "200023919", "nom": "CC Gâtinais Val de Loing" }, "geometry": { "type": "Point", "coordinates": [ 2.595166129882812, 48.180673120117184 ] } },
{ "type": "Feature", "properties": { "code": "200027027", "nom": "CC Arc Sud Bretagne" }, "geometry": { "type": "Point", "coordinates": [ -2.4302528125, 47.560272187499997 ] } },
{ "type": "Feature", "properties": { "code": "200027076", "nom": "CC Arnon Boischaut Cher" }, "geometry": { "type": "Point", "coordinates": [ 2.336798373046876, 46.856135248046883 ] } },
{ "type": "Feature", "properties": { "code": "200035970", "nom": "CC Vexin Centre" }, "geometry": { "type": "Point", "coordinates": [ 1.943395577148437, 49.104482786132806 ] } },
{ "type": "Feature", "properties": { "code": "200027100", "nom": "CC Méditerranée Porte des Maures" }, "geometry": { "type": "Point", "coordinates": [ 6.311346971679686, 43.190317891601559 ] } },
{ "type": "Feature", "properties": { "code": "244000774", "nom": "CC du Pays de Villeneuve en Armagnac Landais" }, "geometry": { "type": "Point", "coordinates": [ -0.300425315429687, 43.894569694335928 ] } },
{ "type": "Feature", "properties": { "code": "241800457", "nom": "CC FerCher" }, "geometry": { "type": "Point", "coordinates": [ 2.230516172851563, 46.966168487304699 ] } },
{ "type": "Feature", "properties": { "code": "200027183", "nom": "CU Perpignan Méditerranée Métropole" }, "geometry": { "type": "Point", "coordinates": [ 2.7914161875, 42.746650437500016 ] } },
{ "type": "Feature", "properties": { "code": "200027308", "nom": "CC d'Auberive Vingeanne et Montsaugeonnais" }, "geometry": { "type": "Point", "coordinates": [ 5.075803162597656, 47.78389642919921 ] } },
{ "type": "Feature", "properties": { "code": "200029734", "nom": "CC des 4B Sud Charente" }, "geometry": { "type": "Point", "coordinates": [ -0.1389511015625, 45.399349929687503 ] } },
{ "type": "Feature", "properties": { "code": "200030385", "nom": "CA de Blois ''Agglopolys''" }, "geometry": { "type": "Point", "coordinates": [ 1.202481479492188, 47.564379081054689 ] } },
{ "type": "Feature", "properties": { "code": "200030435", "nom": "CC d'Aire-sur-l'Adour" }, "geometry": { "type": "Point", "coordinates": [ -0.245590447265625, 43.676510705078122 ] } },
{ "type": "Feature", "properties": { "code": "244000857", "nom": "CC Côte Landes Nature" }, "geometry": { "type": "Point", "coordinates": [ -1.267523021972656, 43.94841780029298 ] } },
{ "type": "Feature", "properties": { "code": "200071371", "nom": "CC Bresse et Saône" }, "geometry": { "type": "Point", "coordinates": [ 4.944719227050783, 46.363069767089833 ] } },
{ "type": "Feature", "properties": { "code": "200030526", "nom": "CC du Ried de Marckolsheim" }, "geometry": { "type": "Point", "coordinates": [ 7.607368891601562, 48.237578405273425 ] } },
{ "type": "Feature", "properties": { "code": "200030633", "nom": "CA du Caudrésis et du Catésis" }, "geometry": { "type": "Point", "coordinates": [ 3.401717620117188, 50.096428862304698 ] } },
{ "type": "Feature", "properties": { "code": "200030658", "nom": "CC du Trièves" }, "geometry": { "type": "Point", "coordinates": [ 5.592658129882813, 44.870625684570314 ] } },
{ "type": "Feature", "properties": { "code": "244000881", "nom": "CC Coteaux et Vallées des Luys" }, "geometry": { "type": "Point", "coordinates": [ -0.735520705078125, 43.610821376953126 ] } },
{ "type": "Feature", "properties": { "code": "244400537", "nom": "CC de Nozay" }, "geometry": { "type": "Point", "coordinates": [ -1.592419471191406, 47.531344574707035 ] } },
{ "type": "Feature", "properties": { "code": "200030674", "nom": "CA Val de Garonne Agglomération" }, "geometry": { "type": "Point", "coordinates": [ 0.23805926953125, 44.476783816406254 ] } },
{ "type": "Feature", "properties": { "code": "241300417", "nom": "CA d'Arles-Crau-Camargue-Montagnette" }, "geometry": { "type": "Point", "coordinates": [ 4.647661642578125, 43.550907673828128 ] } },
{ "type": "Feature", "properties": { "code": "200033025", "nom": "CA de Bar-le-Duc - Sud Meuse" }, "geometry": { "type": "Point", "coordinates": [ 5.202115208496093, 48.778628823730472 ] } },
{ "type": "Feature", "properties": { "code": "200033116", "nom": "CC Cluses-Arve et Montagnes" }, "geometry": { "type": "Point", "coordinates": [ 6.553784562011719, 46.030235133300771 ] } },
{ "type": "Feature", "properties": { "code": "200033173", "nom": "CC de la Haute Vallée de Chevreuse" }, "geometry": { "type": "Point", "coordinates": [ 1.9778910859375, 48.714376710937508 ] } },
{ "type": "Feature", "properties": { "code": "200033181", "nom": "CA Chartres Métropole" }, "geometry": { "type": "Point", "coordinates": [ 1.479964008300782, 48.423387613769542 ] } },
{ "type": "Feature", "properties": { "code": "200033298", "nom": "CC des Coëvrons" }, "geometry": { "type": "Point", "coordinates": [ -0.369205921875, 48.160287640625 ] } },
{ "type": "Feature", "properties": { "code": "200033579", "nom": "CU d'Arras" }, "geometry": { "type": "Point", "coordinates": [ 2.806978003417968, 50.279916470214836 ] } },
{ "type": "Feature", "properties": { "code": "200033827", "nom": "CC de Fium'Orbu Castellu" }, "geometry": { "type": "Point", "coordinates": [ 9.324028984863281, 42.004330579589855 ] } },
{ "type": "Feature", "properties": { "code": "200039949", "nom": "CC Rives de Moselle" }, "geometry": { "type": "Point", "coordinates": [ 6.220613749511718, 49.212203151855469 ] } },
{ "type": "Feature", "properties": { "code": "200033868", "nom": "CC des Ballons des Hautes-Vosges" }, "geometry": { "type": "Point", "coordinates": [ 6.83294155078125, 47.875289230468738 ] } },
{ "type": "Feature", "properties": { "code": "200034031", "nom": "CC des Monts d'Alban et du Villefranchois" }, "geometry": { "type": "Point", "coordinates": [ 2.427057630859375, 43.863080548828123 ] } },
{ "type": "Feature", "properties": { "code": "200066355", "nom": "CA Sète Agglopôle Méditerranée" }, "geometry": { "type": "Point", "coordinates": [ 3.659574602539062, 43.465588137695313 ] } },
{ "type": "Feature", "properties": { "code": "241700699", "nom": "CC du Bassin de Marennes" }, "geometry": { "type": "Point", "coordinates": [ -1.068349328613281, 45.813781204589844 ] } },
{ "type": "Feature", "properties": { "code": "200034049", "nom": "CC Centre Tarn" }, "geometry": { "type": "Point", "coordinates": [ 2.2868466171875, 43.768229179687502 ] } },
{ "type": "Feature", "properties": { "code": "200034056", "nom": "CC du Lautrécois et du Pays d'Agout" }, "geometry": { "type": "Point", "coordinates": [ 2.109805587402343, 43.705166984863268 ] } },
{ "type": "Feature", "properties": { "code": "200034064", "nom": "CC du Cordais et du Causse (4 C)" }, "geometry": { "type": "Point", "coordinates": [ 1.952590418945312, 44.078700881835942 ] } },
{ "type": "Feature", "properties": { "code": "200034098", "nom": "CC des Montagnes du Giffre" }, "geometry": { "type": "Point", "coordinates": [ 6.760362369140626, 46.080390689453118 ] } },
{ "type": "Feature", "properties": { "code": "247000821", "nom": "CC Rahin et Chérimont" }, "geometry": { "type": "Point", "coordinates": [ 6.719136338867188, 47.708509159179684 ] } },
{ "type": "Feature", "properties": { "code": "243301215", "nom": "CC du Créonnais" }, "geometry": { "type": "Point", "coordinates": [ -0.356723731933594, 44.764748214355464 ] } },
{ "type": "Feature", "properties": { "code": "200034130", "nom": "CC Gally Mauldre" }, "geometry": { "type": "Point", "coordinates": [ 1.984808904296875, 48.866822447265619 ] } },
{ "type": "Feature", "properties": { "code": "200034205", "nom": "CC de la Costa Verde" }, "geometry": { "type": "Point", "coordinates": [ 9.483479242187501, 42.351679195312499 ] } },
{ "type": "Feature", "properties": { "code": "200034270", "nom": "CC du Pays de Barr" }, "geometry": { "type": "Point", "coordinates": [ 7.448249034179687, 48.366005735351571 ] } },
{ "type": "Feature", "properties": { "code": "200034379", "nom": "CC Pays d'Uzès" }, "geometry": { "type": "Point", "coordinates": [ 4.400708957031251, 44.049736113281256 ] } },
{ "type": "Feature", "properties": { "code": "200034411", "nom": "CC du Piémont Cévenol" }, "geometry": { "type": "Point", "coordinates": [ 3.991297930175782, 43.918717342285163 ] } },
{ "type": "Feature", "properties": { "code": "200034601", "nom": "CC Causses Aigoual Cévennes" }, "geometry": { "type": "Point", "coordinates": [ 3.6973927421875, 44.105464820312491 ] } },
{ "type": "Feature", "properties": { "code": "200034635", "nom": "CC du Kochersberg" }, "geometry": { "type": "Point", "coordinates": [ 7.595363184570314, 48.648522375976569 ] } },
{ "type": "Feature", "properties": { "code": "200034692", "nom": "CA du Gard Rhodanien" }, "geometry": { "type": "Point", "coordinates": [ 4.558497425292968, 44.197264478027336 ] } },
{ "type": "Feature", "properties": { "code": "200034700", "nom": "CA Durance-Lubéron-Verdon Agglomération" }, "geometry": { "type": "Point", "coordinates": [ 6.021915688476561, 43.804358350585936 ] } },
{ "type": "Feature", "properties": { "code": "200034718", "nom": "CC de Vitry, Champagne et Der" }, "geometry": { "type": "Point", "coordinates": [ 4.437310951171876, 48.66563967773439 ] } },
{ "type": "Feature", "properties": { "code": "200034726", "nom": "CC Bastides de Lomagne" }, "geometry": { "type": "Point", "coordinates": [ 0.838298352539062, 43.783883596679694 ] } },
{ "type": "Feature", "properties": { "code": "200034825", "nom": "CA du Grand Guéret" }, "geometry": { "type": "Point", "coordinates": [ 1.836081458496094, 46.176725765136723 ] } },
{ "type": "Feature", "properties": { "code": "200034833", "nom": "CC des Bastides Dordogne-Périgord" }, "geometry": { "type": "Point", "coordinates": [ 0.770498553222656, 44.812279394042989 ] } },
{ "type": "Feature", "properties": { "code": "200034874", "nom": "CC Côtes de Meuse Woëvre" }, "geometry": { "type": "Point", "coordinates": [ 5.696927693359376, 48.844123611328136 ] } },
{ "type": "Feature", "properties": { "code": "200034882", "nom": "CC Pays du Mont-Blanc" }, "geometry": { "type": "Point", "coordinates": [ 6.659076710449219, 45.887287328613276 ] } },
{ "type": "Feature", "properties": { "code": "200034957", "nom": "CC du Frontonnais" }, "geometry": { "type": "Point", "coordinates": [ 1.405786984863281, 43.800725374511721 ] } },
{ "type": "Feature", "properties": { "code": "200071645", "nom": "CC Saint Cyr Mère Boitier entre Charolais et Mâconnais" }, "geometry": { "type": "Point", "coordinates": [ 4.471877211425782, 46.354563445800785 ] } },
{ "type": "Feature", "properties": { "code": "200035087", "nom": "CA Terre de Provence" }, "geometry": { "type": "Point", "coordinates": [ 4.787353517578125, 43.866818591796871 ] } },
{ "type": "Feature", "properties": { "code": "200071140", "nom": "CA Moulins Communauté" }, "geometry": { "type": "Point", "coordinates": [ 3.337547421386719, 46.578071103027334 ] } },
{ "type": "Feature", "properties": { "code": "200035103", "nom": "CC de la Vallée de la Haute Sarthe" }, "geometry": { "type": "Point", "coordinates": [ 0.359637122558594, 48.601485101074218 ] } },
{ "type": "Feature", "properties": { "code": "200035111", "nom": "CC des Sources de l'Orne" }, "geometry": { "type": "Point", "coordinates": [ 0.1315014765625, 48.620251179687493 ] } },
{ "type": "Feature", "properties": { "code": "200035319", "nom": "CA Estérel Côte d'Azur Agglomération" }, "geometry": { "type": "Point", "coordinates": [ 6.678150827148437, 43.447175823242183 ] } },
{ "type": "Feature", "properties": { "code": "242500320", "nom": "CC Entre Doubs et Loue" }, "geometry": { "type": "Point", "coordinates": [ 6.406282897949219, 47.012338799316403 ] } },
{ "type": "Feature", "properties": { "code": "200035129", "nom": "CC de Cèze Cévennes" }, "geometry": { "type": "Point", "coordinates": [ 4.27801340234375, 44.252146574218756 ] } },
{ "type": "Feature", "properties": { "code": "243300563", "nom": "CA Bassin d'Arcachon Sud (COBAS)" }, "geometry": { "type": "Point", "coordinates": [ -1.1478961328125, 44.566377992187491 ] } },
{ "type": "Feature", "properties": { "code": "200035327", "nom": "CC Cazals-Salviac" }, "geometry": { "type": "Point", "coordinates": [ 1.292251073242187, 44.655047176757812 ] } },
{ "type": "Feature", "properties": { "code": "243300811", "nom": "CC de l'Estuaire" }, "geometry": { "type": "Point", "coordinates": [ -0.666357686523438, 45.248564598632804 ] } },
{ "type": "Feature", "properties": { "code": "200035137", "nom": "CC Marche Occitane - Val d'Anglin" }, "geometry": { "type": "Point", "coordinates": [ 1.248131640136719, 46.496019112792979 ] } },
{ "type": "Feature", "properties": { "code": "200035202", "nom": "CC Charlieu-Belmont" }, "geometry": { "type": "Point", "coordinates": [ 4.209673143066404, 46.135178774902343 ] } },
{ "type": "Feature", "properties": { "code": "200035533", "nom": "CC du Grand Saint Emilionnais" }, "geometry": { "type": "Point", "coordinates": [ -0.113905668945313, 44.930535663085934 ] } },
{ "type": "Feature", "properties": { "code": "200035442", "nom": "CC du Sud Artois" }, "geometry": { "type": "Point", "coordinates": [ 2.868826396484375, 50.137490517578115 ] } },
{ "type": "Feature", "properties": { "code": "200035541", "nom": "CC des Landes d'Armagnac" }, "geometry": { "type": "Point", "coordinates": [ -0.226103763671875, 44.083009919921885 ] } },
{ "type": "Feature", "properties": { "code": "200065928", "nom": "CA Lannion-Trégor Communauté" }, "geometry": { "type": "Point", "coordinates": [ -3.481034295898437, 48.632511106445321 ] } },
{ "type": "Feature", "properties": { "code": "200035632", "nom": "CC Armagnac Adour" }, "geometry": { "type": "Point", "coordinates": [ -0.108854545410156, 43.649992711425782 ] } },
{ "type": "Feature", "properties": { "code": "200035723", "nom": "CC Ventoux Sud" }, "geometry": { "type": "Point", "coordinates": [ 5.382925355468752, 44.079124175781239 ] } },
{ "type": "Feature", "properties": { "code": "243400520", "nom": "CA Lunel Agglo" }, "geometry": { "type": "Point", "coordinates": [ 4.115549554199219, 43.693496737792962 ] } },
{ "type": "Feature", "properties": { "code": "200035707", "nom": "CC Piège Lauragais Malepère" }, "geometry": { "type": "Point", "coordinates": [ 1.95644965234375, 43.18311902734375 ] } },
{ "type": "Feature", "properties": { "code": "200035715", "nom": "CA Carcassonne Agglo" }, "geometry": { "type": "Point", "coordinates": [ 2.490069708496094, 43.226815254394538 ] } },
{ "type": "Feature", "properties": { "code": "200067189", "nom": "CC Creuse Sud Ouest" }, "geometry": { "type": "Point", "coordinates": [ 1.85070931640625, 45.949746066406256 ] } },
{ "type": "Feature", "properties": { "code": "200069441", "nom": "CC du Pays de Bitche" }, "geometry": { "type": "Point", "coordinates": [ 7.421374428222656, 49.062883230957027 ] } },
{ "type": "Feature", "properties": { "code": "200035731", "nom": "CA Roannais Agglomération" }, "geometry": { "type": "Point", "coordinates": [ 3.924302360351562, 46.089421686523437 ] } },
{ "type": "Feature", "properties": { "code": "200035756", "nom": "CC Astarac Arros en Gascogne" }, "geometry": { "type": "Point", "coordinates": [ 0.412384646972656, 43.422365640136711 ] } },
{ "type": "Feature", "properties": { "code": "200035764", "nom": "CC de la Beauce Loirétaine" }, "geometry": { "type": "Point", "coordinates": [ 1.70012321875, 48.009379156250006 ] } },
{ "type": "Feature", "properties": { "code": "200035772", "nom": "CC du Pays du Saintois" }, "geometry": { "type": "Point", "coordinates": [ 6.091050637207033, 48.460378386230467 ] } },
{ "type": "Feature", "properties": { "code": "241000223", "nom": "CC Forêts, Lacs, Terres en Champagne" }, "geometry": { "type": "Point", "coordinates": [ 4.277236669433595, 48.377388305175785 ] } },
{ "type": "Feature", "properties": { "code": "200070464", "nom": "CC Coeur de Maurienne Arvan" }, "geometry": { "type": "Point", "coordinates": [ 6.299919118164062, 45.209894030273432 ] } },
{ "type": "Feature", "properties": { "code": "200035814", "nom": "CA Flers Agglo" }, "geometry": { "type": "Point", "coordinates": [ -0.514367678710937, 48.743964532226563 ] } },
{ "type": "Feature", "properties": { "code": "200035848", "nom": "CC du Châtillonnais en Berry" }, "geometry": { "type": "Point", "coordinates": [ 1.165232109375, 46.972576046875005 ] } },
{ "type": "Feature", "properties": { "code": "200070548", "nom": "CC Brionnais Sud Bourgogne" }, "geometry": { "type": "Point", "coordinates": [ 4.310908623046874, 46.279104056640627 ] } },
{ "type": "Feature", "properties": { "code": "200066744", "nom": "CC Haute-Corrèze Communauté" }, "geometry": { "type": "Point", "coordinates": [ 2.229344673339843, 45.610286774902349 ] } },
{ "type": "Feature", "properties": { "code": "200068666", "nom": "CA du Grand Saint-Dizier Der et Vallées" }, "geometry": { "type": "Point", "coordinates": [ 4.906209886230468, 48.555643674316407 ] } },
{ "type": "Feature", "properties": { "code": "200070555", "nom": "CC de la Veyle" }, "geometry": { "type": "Point", "coordinates": [ 4.961643922363281, 46.240801676269534 ] } },
{ "type": "Feature", "properties": { "code": "200035855", "nom": "CC Castelnaudary Lauragais Audois" }, "geometry": { "type": "Point", "coordinates": [ 1.952456095703125, 43.331042873046883 ] } },
{ "type": "Feature", "properties": { "code": "200035863", "nom": "CC Région Lézignanaise, Corbières et Minervois" }, "geometry": { "type": "Point", "coordinates": [ 2.729389020019531, 43.16042282568359 ] } },
{ "type": "Feature", "properties": { "code": "200036069", "nom": "CC du Pays de Mortagne-au-Perche" }, "geometry": { "type": "Point", "coordinates": [ 0.509918743164062, 48.503466672851566 ] } },
{ "type": "Feature", "properties": { "code": "200067106", "nom": "CA du Pays Basque" }, "geometry": { "type": "Point", "coordinates": [ -1.099978419433593, 43.222935720214842 ] } },
{ "type": "Feature", "properties": { "code": "200036077", "nom": "CC du Golfe de Saint-Tropez" }, "geometry": { "type": "Point", "coordinates": [ 6.509755336914063, 43.301460350585941 ] } },
{ "type": "Feature", "properties": { "code": "200036135", "nom": "CC Coeur de France" }, "geometry": { "type": "Point", "coordinates": [ 2.55064297265625, 46.753662019531241 ] } },
{ "type": "Feature", "properties": { "code": "200036150", "nom": "CC des Hauts du Val de Saône" }, "geometry": { "type": "Point", "coordinates": [ 5.869303267578126, 47.777218716796874 ] } },
{ "type": "Feature", "properties": { "code": "200036465", "nom": "CC de Thann-Cernay" }, "geometry": { "type": "Point", "coordinates": [ 7.141201168945312, 47.803467795898435 ] } },
{ "type": "Feature", "properties": { "code": "200036473", "nom": "CA \"Saintes - Grandes Rives - L'Agglo\"" }, "geometry": { "type": "Point", "coordinates": [ -0.561184537109375, 45.761831052734365 ] } },
{ "type": "Feature", "properties": { "code": "200036499", "nom": "CC de Marana-Golo" }, "geometry": { "type": "Point", "coordinates": [ 9.458552696777343, 42.577278344238287 ] } },
{ "type": "Feature", "properties": { "code": "200039055", "nom": "CC Ouche et Montagne" }, "geometry": { "type": "Point", "coordinates": [ 4.759462833496093, 47.299208562011707 ] } },
{ "type": "Feature", "properties": { "code": "200036523", "nom": "CC des Bastides en Haut Agenais Périgord" }, "geometry": { "type": "Point", "coordinates": [ 0.722783185546875, 44.57345348632812 ] } },
{ "type": "Feature", "properties": { "code": "200036549", "nom": "CC Val de Gray" }, "geometry": { "type": "Point", "coordinates": [ 5.590180344238282, 47.402918536621101 ] } },
{ "type": "Feature", "properties": { "code": "200037059", "nom": "CC de la Haute Somme (Combles - Péronne - Roisel)" }, "geometry": { "type": "Point", "coordinates": [ 3.025121154296875, 49.964386333984372 ] } },
{ "type": "Feature", "properties": { "code": "200037133", "nom": "CC du Provinois" }, "geometry": { "type": "Point", "coordinates": [ 3.305063925292968, 48.609516661621086 ] } },
{ "type": "Feature", "properties": { "code": "200038958", "nom": "CC de la Pieve de l'Ornano et du Taravo" }, "geometry": { "type": "Point", "coordinates": [ 8.876240862304689, 41.840732561523446 ] } },
{ "type": "Feature", "properties": { "code": "200038990", "nom": "CC de Saint-Méen Montauban" }, "geometry": { "type": "Point", "coordinates": [ -2.053106955078125, 48.226402064453126 ] } },
{ "type": "Feature", "properties": { "code": "200039022", "nom": "CA Vitré Communauté" }, "geometry": { "type": "Point", "coordinates": [ -1.210861764648438, 48.101830516601552 ] } },
{ "type": "Feature", "properties": { "code": "200067981", "nom": "CA Guingamp-Paimpol Agglomération de l'Armor à l'Argoat" }, "geometry": { "type": "Point", "coordinates": [ -3.247227613281249, 48.523297683593754 ] } },
{ "type": "Feature", "properties": { "code": "200039063", "nom": "CC Forêts, Seine et Suzon" }, "geometry": { "type": "Point", "coordinates": [ 4.823976365234375, 47.478039716796879 ] } },
{ "type": "Feature", "properties": { "code": "200039204", "nom": "CC de Lacq-Orthez" }, "geometry": { "type": "Point", "coordinates": [ -0.67384986328125, 43.454995355468753 ] } },
{ "type": "Feature", "properties": { "code": "200039519", "nom": "CC du Quercy Blanc" }, "geometry": { "type": "Point", "coordinates": [ 1.369201563476562, 44.290364278320304 ] } },
{ "type": "Feature", "properties": { "code": "200039642", "nom": "CC Le Tonnerrois en Bourgogne" }, "geometry": { "type": "Point", "coordinates": [ 4.147483214355469, 47.820339164550781 ] } },
{ "type": "Feature", "properties": { "code": "200039709", "nom": "CC du Serein" }, "geometry": { "type": "Point", "coordinates": [ 4.01627360546875, 47.649439347656248 ] } },
{ "type": "Feature", "properties": { "code": "200039758", "nom": "CC Avallon, Vézelay, Morvan" }, "geometry": { "type": "Point", "coordinates": [ 3.76396875, 47.48899525 ] } },
{ "type": "Feature", "properties": { "code": "200039808", "nom": "CC des Gorges de l'Ardèche" }, "geometry": { "type": "Point", "coordinates": [ 4.374134640625001, 44.429903828125006 ] } },
{ "type": "Feature", "properties": { "code": "200039824", "nom": "CC Ardèche des Sources et Volcans" }, "geometry": { "type": "Point", "coordinates": [ 4.219425261230469, 44.669885766113289 ] } },
{ "type": "Feature", "properties": { "code": "200070571", "nom": "CC Coeur de Berry" }, "geometry": { "type": "Point", "coordinates": [ 2.111804445800782, 47.114743840332032 ] } },
{ "type": "Feature", "properties": { "code": "200039832", "nom": "CC Pays des Vans en Cévennes" }, "geometry": { "type": "Point", "coordinates": [ 4.169685767578126, 44.377361087890634 ] } },
{ "type": "Feature", "properties": { "code": "200039857", "nom": "CA du Pays de Grasse" }, "geometry": { "type": "Point", "coordinates": [ 6.785929795410155, 43.806625312988295 ] } },
{ "type": "Feature", "properties": { "code": "200039865", "nom": "Metz Métropole" }, "geometry": { "type": "Point", "coordinates": [ 6.163128764648437, 49.106193079101566 ] } },
{ "type": "Feature", "properties": { "code": "200039907", "nom": "CC du Sud Messin" }, "geometry": { "type": "Point", "coordinates": [ 6.228646471191405, 48.991182395996098 ] } },
{ "type": "Feature", "properties": { "code": "245804406", "nom": "CA de Nevers" }, "geometry": { "type": "Point", "coordinates": [ 3.138221010253906, 46.977226092285157 ] } },
{ "type": "Feature", "properties": { "code": "200039915", "nom": "CA Cannes Pays de Lérins" }, "geometry": { "type": "Point", "coordinates": [ 7.000419852539063, 43.581642913085936 ] } },
{ "type": "Feature", "properties": { "code": "200039931", "nom": "CC Alpes d'Azur" }, "geometry": { "type": "Point", "coordinates": [ 6.908636758789061, 44.069649452148447 ] } },
{ "type": "Feature", "properties": { "code": "200040038", "nom": "CC Saône Doubs Bresse" }, "geometry": { "type": "Point", "coordinates": [ 5.029663480468749, 46.840781769531247 ] } },
{ "type": "Feature", "properties": { "code": "200040095", "nom": "CC Isle Vern Salembre en Périgord" }, "geometry": { "type": "Point", "coordinates": [ 0.486112791015625, 45.127664326171882 ] } },
{ "type": "Feature", "properties": { "code": "200040111", "nom": "CC Coeur de Chartreuse" }, "geometry": { "type": "Point", "coordinates": [ 5.789983180664063, 45.397388616210947 ] } },
{ "type": "Feature", "properties": { "code": "243800935", "nom": "CC Lyon-Saint-Exupéry en Dauphiné" }, "geometry": { "type": "Point", "coordinates": [ 5.144554552734375, 45.768683416015627 ] } },
{ "type": "Feature", "properties": { "code": "200040137", "nom": "CC des Lacs de Champagne" }, "geometry": { "type": "Point", "coordinates": [ 4.48441254296875, 48.44596426953126 ] } },
{ "type": "Feature", "properties": { "code": "200040178", "nom": "CC de l'Outre-Forêt" }, "geometry": { "type": "Point", "coordinates": [ 7.95620996484375, 48.906429394531258 ] } },
{ "type": "Feature", "properties": { "code": "200070852", "nom": "CC Usses et Rhône" }, "geometry": { "type": "Point", "coordinates": [ 5.87511408984375, 46.022871847656255 ] } },
{ "type": "Feature", "properties": { "code": "200040202", "nom": "CC Provence Verdon" }, "geometry": { "type": "Point", "coordinates": [ 5.920660466308593, 43.613620588378907 ] } },
{ "type": "Feature", "properties": { "code": "200040210", "nom": "CC Lacs et Gorges du Verdon" }, "geometry": { "type": "Point", "coordinates": [ 6.226408456542968, 43.685035261230475 ] } },
{ "type": "Feature", "properties": { "code": "200040244", "nom": "CA du Bocage Bressuirais" }, "geometry": { "type": "Point", "coordinates": [ -0.5300576015625, 46.834459195312512 ] } },
{ "type": "Feature", "properties": { "code": "200040251", "nom": "CC Bassée-Montois" }, "geometry": { "type": "Point", "coordinates": [ 3.146277829589844, 48.453207476074212 ] } },
{ "type": "Feature", "properties": { "code": "200040798", "nom": "CC Val Vanoise" }, "geometry": { "type": "Point", "coordinates": [ 6.659819546875001, 45.387629234375012 ] } },
{ "type": "Feature", "properties": { "code": "200040277", "nom": "CA Agglo du Pays de Dreux" }, "geometry": { "type": "Point", "coordinates": [ 1.25678223828125, 48.641376652343752 ] } },
{ "type": "Feature", "properties": { "code": "200040293", "nom": "CC du Clunisois" }, "geometry": { "type": "Point", "coordinates": [ 4.587058234863282, 46.482670644042969 ] } },
{ "type": "Feature", "properties": { "code": "200040350", "nom": "CC Bugey Sud" }, "geometry": { "type": "Point", "coordinates": [ 5.69082025, 45.80292325 ] } },
{ "type": "Feature", "properties": { "code": "200040384", "nom": "CC Isle Double Landais" }, "geometry": { "type": "Point", "coordinates": [ 0.138166610351563, 45.043141125976554 ] } },
{ "type": "Feature", "properties": { "code": "243801024", "nom": "CC du Massif du Vercors" }, "geometry": { "type": "Point", "coordinates": [ 5.558201435058595, 45.121208566894531 ] } },
{ "type": "Feature", "properties": { "code": "200040426", "nom": "CC du Val de l'Oise" }, "geometry": { "type": "Point", "coordinates": [ 3.445342286132813, 49.788441524414054 ] } },
{ "type": "Feature", "properties": { "code": "200040392", "nom": "CA Le Grand Périgueux" }, "geometry": { "type": "Point", "coordinates": [ 0.762328830078125, 45.137945431640624 ] } },
{ "type": "Feature", "properties": { "code": "200040400", "nom": "CC du Périgord Ribéracois" }, "geometry": { "type": "Point", "coordinates": [ 0.387094634765625, 45.306370158203123 ] } },
{ "type": "Feature", "properties": { "code": "200040418", "nom": "CC du Pays de Serres en Quercy" }, "geometry": { "type": "Point", "coordinates": [ 1.033155755859375, 44.280720416015619 ] } },
{ "type": "Feature", "properties": { "code": "200040442", "nom": "CA Luberon Monts de Vaucluse" }, "geometry": { "type": "Point", "coordinates": [ 5.124921963867188, 43.826634147460936 ] } },
{ "type": "Feature", "properties": { "code": "200040509", "nom": "CC du Crestois et de Pays de Saillans Coeur de Drôme" }, "geometry": { "type": "Point", "coordinates": [ 5.228750707519532, 44.686560639160149 ] } },
{ "type": "Feature", "properties": { "code": "243801255", "nom": "CC Collines Isère Nord Communauté" }, "geometry": { "type": "Point", "coordinates": [ 5.060045767578127, 45.578645091796879 ] } },
{ "type": "Feature", "properties": { "code": "200040459", "nom": "CA Montélimar Agglomération" }, "geometry": { "type": "Point", "coordinates": [ 4.811140173828126, 44.56278108789062 ] } },
{ "type": "Feature", "properties": { "code": "200041416", "nom": "CC Airvaudais-Val du Thouet" }, "geometry": { "type": "Point", "coordinates": [ -0.1445727578125, 46.8135305234375 ] } },
{ "type": "Feature", "properties": { "code": "244000675", "nom": "CA du Grand Dax" }, "geometry": { "type": "Point", "coordinates": [ -1.047669715820312, 43.721596930664063 ] } },
{ "type": "Feature", "properties": { "code": "200040475", "nom": "CC LBN Communauté" }, "geometry": { "type": "Point", "coordinates": [ -0.132053865234375, 47.959112587890615 ] } },
{ "type": "Feature", "properties": { "code": "200040491", "nom": "CC Porte de Dromardèche" }, "geometry": { "type": "Point", "coordinates": [ 4.921109381835937, 45.233214563476565 ] } },
{ "type": "Feature", "properties": { "code": "245804497", "nom": "CC du Nivernais Bourbonnais" }, "geometry": { "type": "Point", "coordinates": [ 3.196316275878906, 46.753058179199229 ] } },
{ "type": "Feature", "properties": { "code": "242400935", "nom": "CC du Pays de Saint Aulaye" }, "geometry": { "type": "Point", "coordinates": [ 0.084993894042969, 45.160492864746082 ] } },
{ "type": "Feature", "properties": { "code": "200040558", "nom": "CC Écueillé-Valençay" }, "geometry": { "type": "Point", "coordinates": [ 1.465142465332032, 47.137314303222666 ] } },
{ "type": "Feature", "properties": { "code": "200068963", "nom": "CC Maine Coeur de Sarthe" }, "geometry": { "type": "Point", "coordinates": [ 0.191355859375, 48.132694203125006 ] } },
{ "type": "Feature", "properties": { "code": "242504116", "nom": "CC du Val de Morteau" }, "geometry": { "type": "Point", "coordinates": [ 6.607055416015625, 47.040646169921885 ] } },
{ "type": "Feature", "properties": { "code": "200040566", "nom": "CA de l'Ouest Rhodanien" }, "geometry": { "type": "Point", "coordinates": [ 4.396627791992189, 46.046026258789063 ] } },
{ "type": "Feature", "properties": { "code": "200040574", "nom": "CC Beaujolais Pierres Dorées" }, "geometry": { "type": "Point", "coordinates": [ 4.6754257421875, 45.914016460937496 ] } },
{ "type": "Feature", "properties": { "code": "200040624", "nom": "CC Pays d'Apt-Luberon" }, "geometry": { "type": "Point", "coordinates": [ 5.346409336914062, 43.899072385742187 ] } },
{ "type": "Feature", "properties": { "code": "200040590", "nom": "CA Villefranche Beaujolais Saône" }, "geometry": { "type": "Point", "coordinates": [ 4.600586545898437, 46.022223278320311 ] } },
{ "type": "Feature", "properties": { "code": "241200625", "nom": "CC du Pays Rignacois" }, "geometry": { "type": "Point", "coordinates": [ 2.331041779296875, 44.447757935546868 ] } },
{ "type": "Feature", "properties": { "code": "200040657", "nom": "CC de la Matheysine" }, "geometry": { "type": "Point", "coordinates": [ 5.937776778320314, 44.914243397460943 ] } },
{ "type": "Feature", "properties": { "code": "200040715", "nom": "Grenoble-Alpes-Métropole" }, "geometry": { "type": "Point", "coordinates": [ 5.725764748046876, 45.129834775390634 ] } },
{ "type": "Feature", "properties": { "code": "200040764", "nom": "CC du Sud Corse" }, "geometry": { "type": "Point", "coordinates": [ 9.180972997070315, 41.522974965820303 ] } },
{ "type": "Feature", "properties": { "code": "200040772", "nom": "CC du Perche et Haut Vendômois" }, "geometry": { "type": "Point", "coordinates": [ 1.178896339355469, 47.8885527993164 ] } },
{ "type": "Feature", "properties": { "code": "200040814", "nom": "CC Briance Sud Haute Vienne" }, "geometry": { "type": "Point", "coordinates": [ 1.412333520507813, 45.618999360351552 ] } },
{ "type": "Feature", "properties": { "code": "200040830", "nom": "CC du Pays de Fénelon" }, "geometry": { "type": "Point", "coordinates": [ 1.350272420898438, 44.978945272460926 ] } },
{ "type": "Feature", "properties": { "code": "200040889", "nom": "CC de Portes Sud Périgord" }, "geometry": { "type": "Point", "coordinates": [ 0.6182269765625, 44.754393414062505 ] } },
{ "type": "Feature", "properties": { "code": "200041853", "nom": "CC du Pays de Montbozon et du Chanois" }, "geometry": { "type": "Point", "coordinates": [ 6.211010333984373, 47.497257978515634 ] } },
{ "type": "Feature", "properties": { "code": "200040905", "nom": "CC Carmausin-Ségala" }, "geometry": { "type": "Point", "coordinates": [ 2.145418977050781, 44.06390784423828 ] } },
{ "type": "Feature", "properties": { "code": "200040947", "nom": "CA Coeur de Flandre" }, "geometry": { "type": "Point", "coordinates": [ 2.5361983203125, 50.751802835937504 ] } },
{ "type": "Feature", "properties": { "code": "200040954", "nom": "CC des Hauts de Flandre" }, "geometry": { "type": "Point", "coordinates": [ 2.506732642089844, 50.933151227050779 ] } },
{ "type": "Feature", "properties": { "code": "200042000", "nom": "CC Bruyères-Vallons des Vosges" }, "geometry": { "type": "Point", "coordinates": [ 6.684173628417969, 48.204860141113279 ] } },
{ "type": "Feature", "properties": { "code": "200071967", "nom": "CC Pays d'Evian Vallée d'Abondance" }, "geometry": { "type": "Point", "coordinates": [ 6.705640967285156, 46.340559259277349 ] } },
{ "type": "Feature", "properties": { "code": "200041010", "nom": "CC Coeur de Savoie" }, "geometry": { "type": "Point", "coordinates": [ 6.157431692871094, 45.509417204589845 ] } },
{ "type": "Feature", "properties": { "code": "200042463", "nom": "CC de la Montagne Noire" }, "geometry": { "type": "Point", "coordinates": [ 2.3114270390625, 43.380071820312502 ] } },
{ "type": "Feature", "properties": { "code": "244000691", "nom": "CC du Pays Morcenais" }, "geometry": { "type": "Point", "coordinates": [ -1.020008840820313, 44.064543106445313 ] } },
{ "type": "Feature", "properties": { "code": "200041051", "nom": "CC Vallée de la Dordogne et Forêt Bessède" }, "geometry": { "type": "Point", "coordinates": [ 1.026282965332031, 44.823447286621104 ] } },
{ "type": "Feature", "properties": { "code": "200042497", "nom": "CC Dombes Saône Vallée" }, "geometry": { "type": "Point", "coordinates": [ 4.862869326171875, 45.973370658203116 ] } },
{ "type": "Feature", "properties": { "code": "200073161", "nom": "CC Touraine-Est Vallées" }, "geometry": { "type": "Point", "coordinates": [ 0.814665413085938, 47.373671307617194 ] } },
{ "type": "Feature", "properties": { "code": "200041150", "nom": "CC Terrassonnais Haut Périgord Noir" }, "geometry": { "type": "Point", "coordinates": [ 1.116593116210938, 45.18364731933594 ] } },
{ "type": "Feature", "properties": { "code": "200041168", "nom": "CC de la Vallée de l'Homme" }, "geometry": { "type": "Point", "coordinates": [ 0.98649697265625, 44.999272902343748 ] } },
{ "type": "Feature", "properties": { "code": "245501184", "nom": "CC du Pays de Revigny-sur-Ornain" }, "geometry": { "type": "Point", "coordinates": [ 4.991736986328124, 48.820709412109366 ] } },
{ "type": "Feature", "properties": { "code": "200041283", "nom": "CC de la Plaine du Rhin" }, "geometry": { "type": "Point", "coordinates": [ 8.09563829394531, 48.930485608398442 ] } },
{ "type": "Feature", "properties": { "code": "200041317", "nom": "CA du Niortais" }, "geometry": { "type": "Point", "coordinates": [ -0.461681803222656, 46.282342262207024 ] } },
{ "type": "Feature", "properties": { "code": "200041325", "nom": "CC du Pays Rhénan" }, "geometry": { "type": "Point", "coordinates": [ 8.03306103076172, 48.826226395019525 ] } },
{ "type": "Feature", "properties": { "code": "200070126", "nom": "CC Seine et Aube" }, "geometry": { "type": "Point", "coordinates": [ 3.94975278125, 48.500942656250004 ] } },
{ "type": "Feature", "properties": { "code": "200041333", "nom": "CC de Parthenay-Gâtine" }, "geometry": { "type": "Point", "coordinates": [ -0.135044087402344, 46.665530307128897 ] } },
{ "type": "Feature", "properties": { "code": "200041366", "nom": "CC Rhône Crussol" }, "geometry": { "type": "Point", "coordinates": [ 4.807271881347656, 44.932658216308603 ] } },
{ "type": "Feature", "properties": { "code": "200070670", "nom": "CC du Pays de Dol et de la Baie du Mont Saint-Michel" }, "geometry": { "type": "Point", "coordinates": [ -1.622999392578125, 48.542865357421874 ] } },
{ "type": "Feature", "properties": { "code": "200073419", "nom": "CA du Puy-en-Velay" }, "geometry": { "type": "Point", "coordinates": [ 3.834724995605469, 45.122691646972676 ] } },
{ "type": "Feature", "properties": { "code": "200069839", "nom": "CC de la Côte d'Albâtre" }, "geometry": { "type": "Point", "coordinates": [ 0.650413013671875, 49.787081462890633 ] } },
{ "type": "Feature", "properties": { "code": "200041440", "nom": "CC de Domme- Villefranche du Périgord" }, "geometry": { "type": "Point", "coordinates": [ 1.175749149414062, 44.744797928710931 ] } },
{ "type": "Feature", "properties": { "code": "200041465", "nom": "CC Val Eyrieux" }, "geometry": { "type": "Point", "coordinates": [ 4.37847794921875, 44.919347191406239 ] } },
{ "type": "Feature", "properties": { "code": "200041499", "nom": "CC Aunis Atlantique" }, "geometry": { "type": "Point", "coordinates": [ -0.82637678515625, 46.25062751171874 ] } },
{ "type": "Feature", "properties": { "code": "247300452", "nom": "CC Maurienne Galibier" }, "geometry": { "type": "Point", "coordinates": [ 6.507926095703124, 45.182651603515623 ] } },
{ "type": "Feature", "properties": { "code": "200070720", "nom": "CC Médoc Atlantique" }, "geometry": { "type": "Point", "coordinates": [ -1.068304192382812, 45.131319297851569 ] } },
{ "type": "Feature", "properties": { "code": "200041507", "nom": "CA La Riviéra du Levant" }, "geometry": { "type": "Point", "coordinates": [ -61.415422058593748, 16.247647144531246 ] } },
{ "type": "Feature", "properties": { "code": "200070332", "nom": "CC des Savoir-Faire" }, "geometry": { "type": "Point", "coordinates": [ 5.698051437499999, 47.928006312500003 ] } },
{ "type": "Feature", "properties": { "code": "200041515", "nom": "CC du Bassin de Pont-à-Mousson" }, "geometry": { "type": "Point", "coordinates": [ 6.066860077148438, 48.886970682617189 ] } },
{ "type": "Feature", "properties": { "code": "200042653", "nom": "CC Sud-Hérault" }, "geometry": { "type": "Point", "coordinates": [ 2.958062174804686, 43.395568645507822 ] } },
{ "type": "Feature", "properties": { "code": "200041523", "nom": "CC de la Haute Saintonge" }, "geometry": { "type": "Point", "coordinates": [ -0.464200473632812, 45.457333057617184 ] } },
{ "type": "Feature", "properties": { "code": "200041556", "nom": "CC Portes de la Creuse en Marche" }, "geometry": { "type": "Point", "coordinates": [ 1.948627310546875, 46.365154369140633 ] } },
{ "type": "Feature", "properties": { "code": "200041572", "nom": "CC Dronne et Belle" }, "geometry": { "type": "Point", "coordinates": [ 0.651635354492187, 45.374966569335953 ] } },
{ "type": "Feature", "properties": { "code": "200041614", "nom": "CC Aunis Sud" }, "geometry": { "type": "Point", "coordinates": [ -0.751763100585937, 46.090453036132814 ] } },
{ "type": "Feature", "properties": { "code": "200041622", "nom": "CC Ardennes Thiérache" }, "geometry": { "type": "Point", "coordinates": [ 4.3410138125, 49.833192312499989 ] } },
{ "type": "Feature", "properties": { "code": "247400112", "nom": "CC du Pays de Cruseilles" }, "geometry": { "type": "Point", "coordinates": [ 6.071991435058595, 46.046333778808588 ] } },
{ "type": "Feature", "properties": { "code": "200041630", "nom": "CA Ardenne Métropole" }, "geometry": { "type": "Point", "coordinates": [ 4.813589203125, 49.725609921874991 ] } },
{ "type": "Feature", "properties": { "code": "200041689", "nom": "CC Vals de Saintonge Communauté" }, "geometry": { "type": "Point", "coordinates": [ -0.549211714355469, 45.973017877441414 ] } },
{ "type": "Feature", "properties": { "code": "200041721", "nom": "CC de la Haute Comté" }, "geometry": { "type": "Point", "coordinates": [ 6.229619959960936, 47.865447022460934 ] } },
{ "type": "Feature", "properties": { "code": "200042901", "nom": "CC Drôme Sud Provence" }, "geometry": { "type": "Point", "coordinates": [ 4.720304255371095, 44.384700825683588 ] } },
{ "type": "Feature", "properties": { "code": "244000824", "nom": "CC du Pays Grenadois" }, "geometry": { "type": "Point", "coordinates": [ -0.413696367675781, 43.806298873535155 ] } },
{ "type": "Feature", "properties": { "code": "200041762", "nom": "CA Rochefort Océan" }, "geometry": { "type": "Point", "coordinates": [ -1.000426292480469, 45.940649403808578 ] } },
{ "type": "Feature", "properties": { "code": "200041788", "nom": "CA du Pays Nord Martinique" }, "geometry": { "type": "Point", "coordinates": [ -61.118947418457033, 14.787829953613281 ] } },
{ "type": "Feature", "properties": { "code": "200041861", "nom": "CC du Triangle Vert" }, "geometry": { "type": "Point", "coordinates": [ 6.316327402343749, 47.62221076953125 ] } },
{ "type": "Feature", "properties": { "code": "200041879", "nom": "CC Terres de Saône" }, "geometry": { "type": "Point", "coordinates": [ 6.092952755859375, 47.768688037109378 ] } },
{ "type": "Feature", "properties": { "code": "200043065", "nom": "CC du Val d'Amboise" }, "geometry": { "type": "Point", "coordinates": [ 1.019915318847656, 47.43422612060548 ] } },
{ "type": "Feature", "properties": { "code": "241400415", "nom": "CC Coeur Côte Fleurie" }, "geometry": { "type": "Point", "coordinates": [ 0.064515667480469, 49.323011205566409 ] } },
{ "type": "Feature", "properties": { "code": "200041887", "nom": "CC du Val Marnaysien" }, "geometry": { "type": "Point", "coordinates": [ 5.775781410156249, 47.283935457031262 ] } },
{ "type": "Feature", "properties": { "code": "200067064", "nom": "CC Decazeville Communauté" }, "geometry": { "type": "Point", "coordinates": [ 2.2602170390625, 44.580744304687514 ] } },
{ "type": "Feature", "properties": { "code": "200085751", "nom": "CC Entre Bièvre et Rhône" }, "geometry": { "type": "Point", "coordinates": [ 4.836597987304688, 45.371134584960942 ] } },
{ "type": "Feature", "properties": { "code": "200041960", "nom": "CC Pévèle-Carembault" }, "geometry": { "type": "Point", "coordinates": [ 3.219494696289062, 50.50364460449218 ] } },
{ "type": "Feature", "properties": { "code": "200041994", "nom": "CC Haut Val de Sèvre" }, "geometry": { "type": "Point", "coordinates": [ -0.184579438964844, 46.401087784667979 ] } },
{ "type": "Feature", "properties": { "code": "200042174", "nom": "CA Lorient Agglomération" }, "geometry": { "type": "Point", "coordinates": [ -3.275432290039062, 47.893034915039053 ] } },
{ "type": "Feature", "properties": { "code": "200042182", "nom": "CC du Mont des Avaloirs" }, "geometry": { "type": "Point", "coordinates": [ -0.244885846679688, 48.403297282226561 ] } },
{ "type": "Feature", "properties": { "code": "240800920", "nom": "CC de l'Argonne Ardennaise" }, "geometry": { "type": "Point", "coordinates": [ 4.8585770703125, 49.403833179687496 ] } },
{ "type": "Feature", "properties": { "code": "200069524", "nom": "CC Pré-Bocage Intercom" }, "geometry": { "type": "Point", "coordinates": [ -0.695570144042969, 49.053015595214845 ] } },
{ "type": "Feature", "properties": { "code": "200042190", "nom": "CA de la Porte du Hainaut" }, "geometry": { "type": "Point", "coordinates": [ 3.415731658203125, 50.441791822265621 ] } },
{ "type": "Feature", "properties": { "code": "200042372", "nom": "CC des Coteaux Arrats Gimone" }, "geometry": { "type": "Point", "coordinates": [ 0.83096651171875, 43.634866488281247 ] } },
{ "type": "Feature", "properties": { "code": "200042414", "nom": "CC Bresse Revermont 71" }, "geometry": { "type": "Point", "coordinates": [ 5.29880787939453, 46.762600385253911 ] } },
{ "type": "Feature", "properties": { "code": "200042604", "nom": "CC de Granville, Terre et Mer" }, "geometry": { "type": "Point", "coordinates": [ -1.487656314941406, 48.850523598144527 ] } },
{ "type": "Feature", "properties": { "code": "247400617", "nom": "CC des Vallées de Thônes" }, "geometry": { "type": "Point", "coordinates": [ 6.368797163574218, 45.857506968261724 ] } },
{ "type": "Feature", "properties": { "code": "200096642", "nom": "CC Gérardmer Hautes Vosges" }, "geometry": { "type": "Point", "coordinates": [ 6.788188315429688, 48.106004875976566 ] } },
{ "type": "Feature", "properties": { "code": "200042620", "nom": "CC de la Région de Suippes" }, "geometry": { "type": "Point", "coordinates": [ 4.5384083046875, 49.1143314609375 ] } },
{ "type": "Feature", "properties": { "code": "200069052", "nom": "CA Grand Belfort" }, "geometry": { "type": "Point", "coordinates": [ 6.871174561523437, 47.625227479492175 ] } },
{ "type": "Feature", "properties": { "code": "244301131", "nom": "CC Loire et Semène" }, "geometry": { "type": "Point", "coordinates": [ 4.276292084472658, 45.317665435058593 ] } },
{ "type": "Feature", "properties": { "code": "200042646", "nom": "CC Grand Orb Communauté de Communes en Languedoc" }, "geometry": { "type": "Point", "coordinates": [ 3.157021181640625, 43.684163916015628 ] } },
{ "type": "Feature", "properties": { "code": "200042703", "nom": "CC de l'Argonne Champenoise" }, "geometry": { "type": "Point", "coordinates": [ 4.834775013183592, 49.048525753417969 ] } },
{ "type": "Feature", "properties": { "code": "200042729", "nom": "CC de la Baie du Cotentin" }, "geometry": { "type": "Point", "coordinates": [ -1.307295547851563, 49.359630020507829 ] } },
{ "type": "Feature", "properties": { "code": "200042935", "nom": "CA Haut-Bugey Agglomération" }, "geometry": { "type": "Point", "coordinates": [ 5.569475624023436, 46.179459721679699 ] } },
{ "type": "Feature", "properties": { "code": "200042943", "nom": "CC du Cap Corse" }, "geometry": { "type": "Point", "coordinates": [ 9.408343731933595, 42.84367924169922 ] } },
{ "type": "Feature", "properties": { "code": "200043081", "nom": "CC Chinon, Vienne et Loire" }, "geometry": { "type": "Point", "coordinates": [ 0.1983590078125, 47.172791164062502 ] } },
{ "type": "Feature", "properties": { "code": "200042992", "nom": "CC Perthois-Bocage et Der" }, "geometry": { "type": "Point", "coordinates": [ 4.68528685107422, 48.597658476074216 ] } },
{ "type": "Feature", "properties": { "code": "200050532", "nom": "CC de Petite-Terre" }, "geometry": { "type": "Point", "coordinates": [ 45.282900955078119, -12.789014662109375 ] } },
{ "type": "Feature", "properties": { "code": "200069656", "nom": "CC Coeur Haute Lande" }, "geometry": { "type": "Point", "coordinates": [ -0.649075142578125, 44.219334490234374 ] } },
{ "type": "Feature", "properties": { "code": "200043016", "nom": "CC Val de Charente" }, "geometry": { "type": "Point", "coordinates": [ 0.177149737792969, 46.016956496582033 ] } },
{ "type": "Feature", "properties": { "code": "200043123", "nom": "CC Auray Quiberon Terre Atlantique" }, "geometry": { "type": "Point", "coordinates": [ -3.056785922851562, 47.715191299804701 ] } },
{ "type": "Feature", "properties": { "code": "200043156", "nom": "CC du Pays Rethélois" }, "geometry": { "type": "Point", "coordinates": [ 4.350269258300781, 49.449881014160155 ] } },
{ "type": "Feature", "properties": { "code": "200043172", "nom": "CA du Bassin de Brive" }, "geometry": { "type": "Point", "coordinates": [ 1.489040354980469, 45.206983903808599 ] } },
{ "type": "Feature", "properties": { "code": "200043263", "nom": "CC Coeur de l'Avesnois" }, "geometry": { "type": "Point", "coordinates": [ 3.928397828125, 50.103243671875006 ] } },
{ "type": "Feature", "properties": { "code": "246200364", "nom": "CA de Lens - Liévin" }, "geometry": { "type": "Point", "coordinates": [ 2.83632353125, 50.437024718750003 ] } },
{ "type": "Feature", "properties": { "code": "200043321", "nom": "CC du Pays de Mormal" }, "geometry": { "type": "Point", "coordinates": [ 3.668312685546875, 50.211713158203132 ] } },
{ "type": "Feature", "properties": { "code": "200043354", "nom": "CC de Villedieu Intercom" }, "geometry": { "type": "Point", "coordinates": [ -1.173709916992188, 48.89393215527344 ] } },
{ "type": "Feature", "properties": { "code": "200043396", "nom": "CA Maubeuge Val de Sambre" }, "geometry": { "type": "Point", "coordinates": [ 3.945906080078125, 50.264724869140629 ] } },
{ "type": "Feature", "properties": { "code": "200043404", "nom": "CC du Sud Avesnois" }, "geometry": { "type": "Point", "coordinates": [ 4.087933823730468, 50.027875132324233 ] } },
{ "type": "Feature", "properties": { "code": "200043438", "nom": "CC de la Moivre à la Coole" }, "geometry": { "type": "Point", "coordinates": [ 4.569119560546875, 48.944294400390618 ] } },
{ "type": "Feature", "properties": { "code": "200056232", "nom": "CA Communauté Paris-Saclay" }, "geometry": { "type": "Point", "coordinates": [ 2.237287209960938, 48.695626024414054 ] } },
{ "type": "Feature", "properties": { "code": "247700032", "nom": "CC Moret Seine et Loing" }, "geometry": { "type": "Point", "coordinates": [ 2.838967853515625, 48.301320908203117 ] } },
{ "type": "Feature", "properties": { "code": "200043495", "nom": "CA du Pays de Laon" }, "geometry": { "type": "Point", "coordinates": [ 3.674792121093749, 49.544348457031241 ] } },
{ "type": "Feature", "properties": { "code": "246200729", "nom": "CA du Boulonnais" }, "geometry": { "type": "Point", "coordinates": [ 1.65555699609375, 50.700630917968738 ] } },
{ "type": "Feature", "properties": { "code": "244400438", "nom": "CC Grand Lieu Communauté" }, "geometry": { "type": "Point", "coordinates": [ -1.61010312109375, 47.046495035156248 ] } },
{ "type": "Feature", "properties": { "code": "200043602", "nom": "CC des Albères, de la Côte Vermeille et de l'Illibéris" }, "geometry": { "type": "Point", "coordinates": [ 2.978976250488282, 42.536140517089855 ] } },
{ "type": "Feature", "properties": { "code": "200073393", "nom": "CC des Rives du Haut Allier" }, "geometry": { "type": "Point", "coordinates": [ 3.480510647460937, 45.071426049804678 ] } },
{ "type": "Feature", "properties": { "code": "200058477", "nom": "CA Val d'Yerres Val de Seine" }, "geometry": { "type": "Point", "coordinates": [ 2.430353558105468, 48.689709617675781 ] } },
{ "type": "Feature", "properties": { "code": "243100781", "nom": "CC Le Grand Ouest Toulousain" }, "geometry": { "type": "Point", "coordinates": [ 1.2632134140625, 43.572844070312506 ] } },
{ "type": "Feature", "properties": { "code": "200043628", "nom": "CC des Vallées du Clain" }, "geometry": { "type": "Point", "coordinates": [ 0.318106806640625, 46.432617068359377 ] } },
{ "type": "Feature", "properties": { "code": "200059228", "nom": "CA Grand Paris Sud Seine Essonne Sénart" }, "geometry": { "type": "Point", "coordinates": [ 2.567575426757812, 48.618467250976558 ] } },
{ "type": "Feature", "properties": { "code": "244301107", "nom": "CC du Haut Lignon" }, "geometry": { "type": "Point", "coordinates": [ 4.276111012207031, 45.089154080566409 ] } },
{ "type": "Feature", "properties": { "code": "200043693", "nom": "CC Terre Lorraine du Longuyonnais" }, "geometry": { "type": "Point", "coordinates": [ 5.568394452636717, 49.473231414550774 ] } },
{ "type": "Feature", "properties": { "code": "200043776", "nom": "CC Pyrénées audoises" }, "geometry": { "type": "Point", "coordinates": [ 2.177428602539063, 42.820456577148441 ] } },
{ "type": "Feature", "properties": { "code": "200043974", "nom": "CC du Sud Gironde" }, "geometry": { "type": "Point", "coordinates": [ -0.40010354296875, 44.416726980468759 ] } },
{ "type": "Feature", "properties": { "code": "200043982", "nom": "CC du Bazadais" }, "geometry": { "type": "Point", "coordinates": [ -0.174997534179687, 44.376776137695309 ] } },
{ "type": "Feature", "properties": { "code": "200060473", "nom": "CC du Sud" }, "geometry": { "type": "Point", "coordinates": [ 45.139581296875001, -12.961501515624999 ] } },
{ "type": "Feature", "properties": { "code": "244500211", "nom": "CC Giennoises" }, "geometry": { "type": "Point", "coordinates": [ 2.616903548828126, 47.697489630859366 ] } },
{ "type": "Feature", "properties": { "code": "200043990", "nom": "CC Vallons de Haute-Bretagne Communauté" }, "geometry": { "type": "Point", "coordinates": [ -1.854457552734375, 47.93432325976562 ] } },
{ "type": "Feature", "properties": { "code": "200044014", "nom": "CC Creuse Grand Sud" }, "geometry": { "type": "Point", "coordinates": [ 2.073920383789062, 45.843838499023427 ] } },
{ "type": "Feature", "properties": { "code": "200044030", "nom": "CC des 7 Vallées" }, "geometry": { "type": "Point", "coordinates": [ 1.895895301269531, 50.407781262207031 ] } },
{ "type": "Feature", "properties": { "code": "200044048", "nom": "CC Osartis Marquion" }, "geometry": { "type": "Point", "coordinates": [ 3.010648506347656, 50.209074771972652 ] } },
{ "type": "Feature", "properties": { "code": "200044253", "nom": "CC du Bassin de Joinville en Champagne" }, "geometry": { "type": "Point", "coordinates": [ 5.121757676757812, 48.410748424804694 ] } },
{ "type": "Feature", "properties": { "code": "200044394", "nom": "CC du Réolais en Sud Gironde" }, "geometry": { "type": "Point", "coordinates": [ -0.046704211914063, 44.578736393554671 ] } },
{ "type": "Feature", "properties": { "code": "200044469", "nom": "CC du Pays de Mirepoix" }, "geometry": { "type": "Point", "coordinates": [ 1.84111778515625, 43.066971394531244 ] } },
{ "type": "Feature", "properties": { "code": "246301097", "nom": "CC Entre Dore et Allier" }, "geometry": { "type": "Point", "coordinates": [ 3.391816645507812, 45.840001293945321 ] } },
{ "type": "Feature", "properties": { "code": "200096675", "nom": "CC Baud Communauté" }, "geometry": { "type": "Point", "coordinates": [ -3.008434813964844, 47.946662410644521 ] } },
{ "type": "Feature", "properties": { "code": "200044618", "nom": "CA Douaisis Agglo" }, "geometry": { "type": "Point", "coordinates": [ 3.100479708984374, 50.376506705078128 ] } },
{ "type": "Feature", "properties": { "code": "200071942", "nom": "CC Haut Limousin en Marche" }, "geometry": { "type": "Point", "coordinates": [ 0.977440462402344, 46.150291126464843 ] } },
{ "type": "Feature", "properties": { "code": "200065563", "nom": "CC Normandie-Cabourg-Pays d'Auge" }, "geometry": { "type": "Point", "coordinates": [ -0.066252854492187, 49.231012303710941 ] } },
{ "type": "Feature", "properties": { "code": "240100891", "nom": "CC Terre Valserhône (CCTV)" }, "geometry": { "type": "Point", "coordinates": [ 5.767576790039062, 46.096649321289057 ] } },
{ "type": "Feature", "properties": { "code": "200044691", "nom": "CA du Nord Grande Terre" }, "geometry": { "type": "Point", "coordinates": [ -61.464786798339844, 16.431958653808593 ] } },
{ "type": "Feature", "properties": { "code": "200046977", "nom": "Métropole de Lyon" }, "geometry": { "type": "Point", "coordinates": [ 4.834735733398436, 45.78880063769531 ] } },
{ "type": "Feature", "properties": { "code": "200048551", "nom": "CC du Pays de Craon" }, "geometry": { "type": "Point", "coordinates": [ -1.056007797363281, 47.878679746582023 ] } },
{ "type": "Feature", "properties": { "code": "200049187", "nom": "CA du Grand Verdun" }, "geometry": { "type": "Point", "coordinates": [ 5.372730643066405, 49.197593177246098 ] } },
{ "type": "Feature", "properties": { "code": "200049211", "nom": "CC Conflent-Canigó" }, "geometry": { "type": "Point", "coordinates": [ 2.369001282226563, 42.573849495117187 ] } },
{ "type": "Feature", "properties": { "code": "200049484", "nom": "CC Berry Grand Sud" }, "geometry": { "type": "Point", "coordinates": [ 2.276967959472656, 46.576274220214849 ] } },
{ "type": "Feature", "properties": { "code": "200054781", "nom": "Métropole du Grand Paris" }, "geometry": { "type": "Point", "coordinates": [ 2.414892144042969, 48.839542335449224 ] } },
{ "type": "Feature", "properties": { "code": "200055481", "nom": "CC Beauce Val de Loire" }, "geometry": { "type": "Point", "coordinates": [ 1.4453711328125, 47.741604367187492 ] } },
{ "type": "Feature", "properties": { "code": "242900660", "nom": "CC du Pays Fouesnantais" }, "geometry": { "type": "Point", "coordinates": [ -4.033614068847656, 47.896586582519525 ] } },
{ "type": "Feature", "properties": { "code": "240100800", "nom": "CC de Miribel et du Plateau" }, "geometry": { "type": "Point", "coordinates": [ 4.956597419921875, 45.848425994140634 ] } },
{ "type": "Feature", "properties": { "code": "200055655", "nom": "CA Roissy Pays de France" }, "geometry": { "type": "Point", "coordinates": [ 2.626045110839843, 49.030522008300785 ] } },
{ "type": "Feature", "properties": { "code": "240100883", "nom": "CC de la Plaine de l'Ain" }, "geometry": { "type": "Point", "coordinates": [ 5.411561031738282, 45.935362012207037 ] } },
{ "type": "Feature", "properties": { "code": "200055887", "nom": "CC Mayenne Communauté" }, "geometry": { "type": "Point", "coordinates": [ -0.519200526855469, 48.312471530761719 ] } },
{ "type": "Feature", "properties": { "code": "200056380", "nom": "CA Plaine Vallée" }, "geometry": { "type": "Point", "coordinates": [ 2.324988432617188, 49.013602221679683 ] } },
{ "type": "Feature", "properties": { "code": "240200444", "nom": "CC de la Thiérache du Centre" }, "geometry": { "type": "Point", "coordinates": [ 3.895448161132812, 49.851641969726572 ] } },
{ "type": "Feature", "properties": { "code": "200057859", "nom": "CA Coeur d'Essonne Agglomération" }, "geometry": { "type": "Point", "coordinates": [ 2.264706091796875, 48.575101416015627 ] } },
{ "type": "Feature", "properties": { "code": "240200519", "nom": "CC du Canton d'Oulchy-le-Château" }, "geometry": { "type": "Point", "coordinates": [ 3.380718310546876, 49.260062482421866 ] } },
{ "type": "Feature", "properties": { "code": "200057958", "nom": "CA Paris - Vallée de la Marne" }, "geometry": { "type": "Point", "coordinates": [ 2.634313089355468, 48.808682709472663 ] } },
{ "type": "Feature", "properties": { "code": "200058360", "nom": "CC Entre Beauce et Perche" }, "geometry": { "type": "Point", "coordinates": [ 1.217635446289063, 48.437941959960945 ] } },
{ "type": "Feature", "properties": { "code": "200058485", "nom": "CA Val Parisis" }, "geometry": { "type": "Point", "coordinates": [ 2.203416650390624, 49.009147115234363 ] } },
{ "type": "Feature", "properties": { "code": "246600373", "nom": "CC du Vallespir" }, "geometry": { "type": "Point", "coordinates": [ 2.783811542480469, 42.485942583496097 ] } },
{ "type": "Feature", "properties": { "code": "240200600", "nom": "CC des Trois Rivières" }, "geometry": { "type": "Point", "coordinates": [ 4.134412026367186, 49.887393157226555 ] } },
{ "type": "Feature", "properties": { "code": "200058519", "nom": "CA Saint Germain Boucles de Seine" }, "geometry": { "type": "Point", "coordinates": [ 2.125059058105468, 48.928719882324209 ] } },
{ "type": "Feature", "properties": { "code": "200058782", "nom": "CA de Saint Quentin en Yvelines" }, "geometry": { "type": "Point", "coordinates": [ 2.043755528320312, 48.764391221679695 ] } },
{ "type": "Feature", "properties": { "code": "240200477", "nom": "CA GrandSoissons Agglomération" }, "geometry": { "type": "Point", "coordinates": [ 3.306914271484376, 49.391070623046879 ] } },
{ "type": "Feature", "properties": { "code": "200059392", "nom": "CC Bièvre Isère" }, "geometry": { "type": "Point", "coordinates": [ 5.241287546875001, 45.347505234374992 ] } },
{ "type": "Feature", "properties": { "code": "200059400", "nom": "CC Porte Océane du Limousin" }, "geometry": { "type": "Point", "coordinates": [ 0.975295867675781, 45.922310802246102 ] } },
{ "type": "Feature", "properties": { "code": "200059871", "nom": "CC du Centre-Ouest" }, "geometry": { "type": "Point", "coordinates": [ 45.136073149414067, -12.783616625976562 ] } },
{ "type": "Feature", "properties": { "code": "200072049", "nom": "CC de Charente Limousine" }, "geometry": { "type": "Point", "coordinates": [ 0.594116138183594, 45.91288040283203 ] } },
{ "type": "Feature", "properties": { "code": "200059889", "nom": "CU Grand Paris Seine et Oise" }, "geometry": { "type": "Point", "coordinates": [ 1.764480785644531, 48.97762380810547 ] } },
{ "type": "Feature", "properties": { "code": "200060010", "nom": "CA Mauges Communauté" }, "geometry": { "type": "Point", "coordinates": [ -1.044255962890625, 47.236648189453128 ] } },
{ "type": "Feature", "properties": { "code": "200060457", "nom": "CA de Dembeni / Mamoudzou" }, "geometry": { "type": "Point", "coordinates": [ 45.190469443359369, -12.789245099609376 ] } },
{ "type": "Feature", "properties": { "code": "200060465", "nom": "CA du Grand Nord de Mayotte" }, "geometry": { "type": "Point", "coordinates": [ 45.091986290039067, -12.707728454101563 ] } },
{ "type": "Feature", "properties": { "code": "200065589", "nom": "CC Val ès Dunes" }, "geometry": { "type": "Point", "coordinates": [ -0.189071992675781, 49.110885614746095 ] } },
{ "type": "Feature", "properties": { "code": "200065597", "nom": "CU Caen la Mer" }, "geometry": { "type": "Point", "coordinates": [ -0.352695385742187, 49.190952063476566 ] } },
{ "type": "Feature", "properties": { "code": "200065647", "nom": "CA Pays de Montbéliard Agglomération" }, "geometry": { "type": "Point", "coordinates": [ 6.819100294921873, 47.45494751757812 ] } },
{ "type": "Feature", "properties": { "code": "200065787", "nom": "CC de Pont-Audemer / Val de Risle" }, "geometry": { "type": "Point", "coordinates": [ 0.524357900390625, 49.35826200976561 ] } },
{ "type": "Feature", "properties": { "code": "200065886", "nom": "CA Loire Forez Agglomération (LFA)" }, "geometry": { "type": "Point", "coordinates": [ 4.096516546875001, 45.559614734375003 ] } },
{ "type": "Feature", "properties": { "code": "200065894", "nom": "CC de Forez-Est" }, "geometry": { "type": "Point", "coordinates": [ 4.253510708984375, 45.761206646484361 ] } },
{ "type": "Feature", "properties": { "code": "200066009", "nom": "CA Mulhouse Alsace Agglomération" }, "geometry": { "type": "Point", "coordinates": [ 7.341260874023438, 47.761920217773422 ] } },
{ "type": "Feature", "properties": { "code": "200069565", "nom": "CC des Lacs et Montagnes du Haut-Doubs" }, "geometry": { "type": "Point", "coordinates": [ 6.322481430664062, 46.775955838867183 ] } },
{ "type": "Feature", "properties": { "code": "244500203", "nom": "CA Montargoise et Rives du Loing (AME)" }, "geometry": { "type": "Point", "coordinates": [ 2.722473271484375, 47.988312091796871 ] } },
{ "type": "Feature", "properties": { "code": "200066017", "nom": "CC Lieuvin Pays d'Auge" }, "geometry": { "type": "Point", "coordinates": [ 0.479576275390625, 49.203055232421875 ] } },
{ "type": "Feature", "properties": { "code": "200066025", "nom": "CC Alsace Rhin Brisach" }, "geometry": { "type": "Point", "coordinates": [ 7.512331615722657, 47.933274758300776 ] } },
{ "type": "Feature", "properties": { "code": "200066033", "nom": "CC Sud Alsace Largue" }, "geometry": { "type": "Point", "coordinates": [ 7.115897254882813, 47.644138084960929 ] } },
{ "type": "Feature", "properties": { "code": "200066058", "nom": "CA Saint-Louis Agglomération" }, "geometry": { "type": "Point", "coordinates": [ 7.477494811523437, 47.608387569335946 ] } },
{ "type": "Feature", "properties": { "code": "200066041", "nom": "CC Sundgau" }, "geometry": { "type": "Point", "coordinates": [ 7.311692087890625, 47.517678646484377 ] } },
{ "type": "Feature", "properties": { "code": "200066108", "nom": "CC des Portes de Meuse" }, "geometry": { "type": "Point", "coordinates": [ 5.482340101562501, 48.516817710937495 ] } },
{ "type": "Feature", "properties": { "code": "200066116", "nom": "CC Argonne-Meuse" }, "geometry": { "type": "Point", "coordinates": [ 5.066392673828124, 49.161598521484365 ] } },
{ "type": "Feature", "properties": { "code": "200066124", "nom": "CA Gaillac-Graulhet" }, "geometry": { "type": "Point", "coordinates": [ 1.822143299316406, 43.899404966308602 ] } },
{ "type": "Feature", "properties": { "code": "200066132", "nom": "CC du Pays de Stenay et du Val Dunois" }, "geometry": { "type": "Point", "coordinates": [ 5.201853181640626, 49.426991806640622 ] } },
{ "type": "Feature", "properties": { "code": "200066140", "nom": "CC de l'Aire à l'Argonne" }, "geometry": { "type": "Point", "coordinates": [ 5.160414724121095, 48.92936114697266 ] } },
{ "type": "Feature", "properties": { "code": "200066157", "nom": "CC de Commercy - Void - Vaucouleurs" }, "geometry": { "type": "Point", "coordinates": [ 5.558104725585936, 48.71617190722656 ] } },
{ "type": "Feature", "properties": { "code": "200066165", "nom": "CC Val de Meuse - Voie Sacrée" }, "geometry": { "type": "Point", "coordinates": [ 5.365259018554687, 49.044394354492184 ] } },
{ "type": "Feature", "properties": { "code": "200069581", "nom": "CC Convergence Garonne" }, "geometry": { "type": "Point", "coordinates": [ -0.381864013183594, 44.623512296386707 ] } },
{ "type": "Feature", "properties": { "code": "244400453", "nom": "CC du Pays de Blain" }, "geometry": { "type": "Point", "coordinates": [ -1.799096344726562, 47.488650674804681 ] } },
{ "type": "Feature", "properties": { "code": "200066173", "nom": "CC de Damvillers Spincourt" }, "geometry": { "type": "Point", "coordinates": [ 5.636086826171875, 49.332515337890619 ] } },
{ "type": "Feature", "properties": { "code": "200066223", "nom": "CC Arize Lèze" }, "geometry": { "type": "Point", "coordinates": [ 1.382068751953125, 43.131189251953131 ] } },
{ "type": "Feature", "properties": { "code": "200066231", "nom": "CC des Portes d'Ariège Pyrénées" }, "geometry": { "type": "Point", "coordinates": [ 1.583093371582031, 43.173072736816408 ] } },
{ "type": "Feature", "properties": { "code": "200066280", "nom": "CC du Pithiverais" }, "geometry": { "type": "Point", "coordinates": [ 2.250659289550781, 48.175429236816413 ] } },
{ "type": "Feature", "properties": { "code": "200066322", "nom": "CC Terres des Confluences" }, "geometry": { "type": "Point", "coordinates": [ 1.077657965820313, 44.042278461914066 ] } },
{ "type": "Feature", "properties": { "code": "200066330", "nom": "CC Terres du Haut Berry" }, "geometry": { "type": "Point", "coordinates": [ 2.575292467773437, 47.21569694238282 ] } },
{ "type": "Feature", "properties": { "code": "200066348", "nom": "CC du Minervois au Caroux" }, "geometry": { "type": "Point", "coordinates": [ 2.752826793945313, 43.407922223632809 ] } },
{ "type": "Feature", "properties": { "code": "200066363", "nom": "CC de la Haute Ariège" }, "geometry": { "type": "Point", "coordinates": [ 1.815759411132813, 42.698437506835944 ] } },
{ "type": "Feature", "properties": { "code": "200066371", "nom": "CC Causses et Vallée de la Dordogne" }, "geometry": { "type": "Point", "coordinates": [ 1.591025485839844, 44.89448069384764 ] } },
{ "type": "Feature", "properties": { "code": "200066389", "nom": "CA Saint-Lô Agglo" }, "geometry": { "type": "Point", "coordinates": [ -1.108637954101562, 49.102263969726565 ] } },
{ "type": "Feature", "properties": { "code": "200066405", "nom": "CC Roumois Seine" }, "geometry": { "type": "Point", "coordinates": [ 0.791316825683594, 49.322365725097661 ] } },
{ "type": "Feature", "properties": { "code": "200066413", "nom": "CC Intercom Bernay Terres de Normandie" }, "geometry": { "type": "Point", "coordinates": [ 0.704720076171875, 49.084110345703131 ] } },
{ "type": "Feature", "properties": { "code": "200066462", "nom": "CC Interco Normandie Sud Eure" }, "geometry": { "type": "Point", "coordinates": [ 0.84477668359375, 48.802211457031248 ] } },
{ "type": "Feature", "properties": { "code": "200066512", "nom": "CC Élan Limousin Avenir Nature" }, "geometry": { "type": "Point", "coordinates": [ 1.430459727539063, 46.027336141601566 ] } },
{ "type": "Feature", "properties": { "code": "200066520", "nom": "CC Ouest Limousin" }, "geometry": { "type": "Point", "coordinates": [ 0.942570628417969, 45.753776527832038 ] } },
{ "type": "Feature", "properties": { "code": "200066553", "nom": "CC du Haut-Languedoc" }, "geometry": { "type": "Point", "coordinates": [ 2.724393544433593, 43.639452367675787 ] } },
{ "type": "Feature", "properties": { "code": "200066561", "nom": "CC Sidobre Vals et Plateaux" }, "geometry": { "type": "Point", "coordinates": [ 2.46965739453125, 43.636472199218744 ] } },
{ "type": "Feature", "properties": { "code": "200066587", "nom": "CC des Monts du Lyonnais" }, "geometry": { "type": "Point", "coordinates": [ 4.479916937011718, 45.663927110839843 ] } },
{ "type": "Feature", "properties": { "code": "200066603", "nom": "CC du Pays de Lubersac-Pompadour" }, "geometry": { "type": "Point", "coordinates": [ 1.379477688964844, 45.410075585449221 ] } },
{ "type": "Feature", "properties": { "code": "200066637", "nom": "CC Hautes Terres" }, "geometry": { "type": "Point", "coordinates": [ 2.933360996582031, 45.205930426269525 ] } },
{ "type": "Feature", "properties": { "code": "200066645", "nom": "CC Vézère-Monédières-Millesources" }, "geometry": { "type": "Point", "coordinates": [ 1.814534966796874, 45.571022220703128 ] } },
{ "type": "Feature", "properties": { "code": "245700695", "nom": "CC de Cattenom et Environs" }, "geometry": { "type": "Point", "coordinates": [ 6.232197655761718, 49.453539009277335 ] } },
{ "type": "Feature", "properties": { "code": "200066652", "nom": "CC Grand Sud Tarn-et-Garonne" }, "geometry": { "type": "Point", "coordinates": [ 1.217255032714844, 43.875280835449217 ] } },
{ "type": "Feature", "properties": { "code": "200066660", "nom": "CC de Saint-Flour" }, "geometry": { "type": "Point", "coordinates": [ 2.97855332470703, 44.937873602050779 ] } },
{ "type": "Feature", "properties": { "code": "200066678", "nom": "CC de la Châtaigneraie Cantalienne" }, "geometry": { "type": "Point", "coordinates": [ 2.274541410644531, 44.770142693847667 ] } },
{ "type": "Feature", "properties": { "code": "200066710", "nom": "CC Cingal-Suisse Normande" }, "geometry": { "type": "Point", "coordinates": [ -0.445140696289063, 48.986887178710944 ] } },
{ "type": "Feature", "properties": { "code": "200066728", "nom": "CC Vallées de l'Orne et de l'Odon" }, "geometry": { "type": "Point", "coordinates": [ -0.46457053125, 49.102795656249995 ] } },
{ "type": "Feature", "properties": { "code": "240400440", "nom": "CC Pays Forcalquier et Montagne de Lure" }, "geometry": { "type": "Point", "coordinates": [ 5.795649020507811, 44.032945336914061 ] } },
{ "type": "Feature", "properties": { "code": "200066751", "nom": "CC Xaintrie Val'Dordogne" }, "geometry": { "type": "Point", "coordinates": [ 1.997200667480469, 45.078112829589841 ] } },
{ "type": "Feature", "properties": { "code": "200066769", "nom": "CC Midi Corrézien" }, "geometry": { "type": "Point", "coordinates": [ 1.709170009765625, 45.07849216992188 ] } },
{ "type": "Feature", "properties": { "code": "200066777", "nom": "CC Ploërmel Communauté" }, "geometry": { "type": "Point", "coordinates": [ -2.436630690429688, 48.005877106445311 ] } },
{ "type": "Feature", "properties": { "code": "200066785", "nom": "CC de l'Oust à Brocéliande" }, "geometry": { "type": "Point", "coordinates": [ -2.252953396484374, 47.852998021484375 ] } },
{ "type": "Feature", "properties": { "code": "200066793", "nom": "CA du Grand Annecy" }, "geometry": { "type": "Point", "coordinates": [ 6.122291904296874, 45.845084654296869 ] } },
{ "type": "Feature", "properties": { "code": "200066801", "nom": "CC Isigny-Omaha Intercom" }, "geometry": { "type": "Point", "coordinates": [ -0.989418502441406, 49.301675652832039 ] } },
{ "type": "Feature", "properties": { "code": "200066819", "nom": "CC du Volvestre" }, "geometry": { "type": "Point", "coordinates": [ 1.227077235351562, 43.255810456054682 ] } },
{ "type": "Feature", "properties": { "code": "200066827", "nom": "CC du Pays de Honfleur-Beuzeville" }, "geometry": { "type": "Point", "coordinates": [ 0.320742201171875, 49.375403880859373 ] } },
{ "type": "Feature", "properties": { "code": "200070100", "nom": "CC du Val de Sully" }, "geometry": { "type": "Point", "coordinates": [ 2.3585894375, 47.724003812500008 ] } },
{ "type": "Feature", "properties": { "code": "200066835", "nom": "CC de Sézanne-Sud Ouest Marnais" }, "geometry": { "type": "Point", "coordinates": [ 3.701851098632811, 48.66268342480469 ] } },
{ "type": "Feature", "properties": { "code": "200066850", "nom": "CC des Paysages de la Champagne" }, "geometry": { "type": "Point", "coordinates": [ 3.755479797851563, 49.042248444335947 ] } },
{ "type": "Feature", "properties": { "code": "200066868", "nom": "CC Presqu'île de Crozon-Aulne maritime" }, "geometry": { "type": "Point", "coordinates": [ -4.341325179687501, 48.245049367187491 ] } },
{ "type": "Feature", "properties": { "code": "200066876", "nom": "CA de Châlons-en-Champagne" }, "geometry": { "type": "Point", "coordinates": [ 4.296140814941407, 48.988072503417975 ] } },
{ "type": "Feature", "properties": { "code": "200066884", "nom": "CC Quercy Vert-Aveyron" }, "geometry": { "type": "Point", "coordinates": [ 1.547982532226563, 44.037572405273444 ] } },
{ "type": "Feature", "properties": { "code": "244200614", "nom": "CC des Vals d'Aix et Isable" }, "geometry": { "type": "Point", "coordinates": [ 4.021490535644532, 45.864215180175783 ] } },
{ "type": "Feature", "properties": { "code": "200070118", "nom": "CC Val de Saône Centre" }, "geometry": { "type": "Point", "coordinates": [ 4.844471239257812, 46.165234768554697 ] } },
{ "type": "Feature", "properties": { "code": "200066892", "nom": "CC de Vendeuvre-Soulaines" }, "geometry": { "type": "Point", "coordinates": [ 4.513274008789063, 48.238915946289069 ] } },
{ "type": "Feature", "properties": { "code": "200066918", "nom": "CA Alès Agglomération" }, "geometry": { "type": "Point", "coordinates": [ 4.085792643554687, 44.143764086914068 ] } },
{ "type": "Feature", "properties": { "code": "200066926", "nom": "CA Grand Auch Coeur de Gascogne" }, "geometry": { "type": "Point", "coordinates": [ 0.607268196289062, 43.674135075195316 ] } },
{ "type": "Feature", "properties": { "code": "200069854", "nom": "CU du Grand Poitiers" }, "geometry": { "type": "Point", "coordinates": [ 0.4208868828125, 46.621760507812503 ] } },
{ "type": "Feature", "properties": { "code": "200066975", "nom": "CC Senlis Sud Oise" }, "geometry": { "type": "Point", "coordinates": [ 2.624999838867188, 49.209964975585926 ] } },
{ "type": "Feature", "properties": { "code": "200067023", "nom": "CC Coutances Mer et Bocage" }, "geometry": { "type": "Point", "coordinates": [ -1.418526928222656, 49.045567580566406 ] } },
{ "type": "Feature", "properties": { "code": "200067031", "nom": "CC Côte Ouest Centre Manche" }, "geometry": { "type": "Point", "coordinates": [ -1.482652646484375, 49.249861279296873 ] } },
{ "type": "Feature", "properties": { "code": "200067320", "nom": "CC Serre-Ponçon Val d'Avance" }, "geometry": { "type": "Point", "coordinates": [ 6.192041254882813, 44.539505641601558 ] } },
{ "type": "Feature", "properties": { "code": "245400189", "nom": "CC des Pays du Sel et du Vermois" }, "geometry": { "type": "Point", "coordinates": [ 6.267335752929688, 48.582898499023429 ] } },
{ "type": "Feature", "properties": { "code": "200067049", "nom": "CC Spelunca-Liamone" }, "geometry": { "type": "Point", "coordinates": [ 8.813425673828124, 42.166440423828121 ] } },
{ "type": "Feature", "properties": { "code": "200067072", "nom": "CC Haut-Léon Communauté" }, "geometry": { "type": "Point", "coordinates": [ -4.009280784667968, 48.65301703271485 ] } },
{ "type": "Feature", "properties": { "code": "200067080", "nom": "CC Chablis Villages et Terroirs" }, "geometry": { "type": "Point", "coordinates": [ 3.804918368164063, 47.768224372070314 ] } },
{ "type": "Feature", "properties": { "code": "200067114", "nom": "CA de l'Auxerrois" }, "geometry": { "type": "Point", "coordinates": [ 3.568080024414062, 47.782802674804692 ] } },
{ "type": "Feature", "properties": { "code": "200067551", "nom": "CA Thonon Agglomération" }, "geometry": { "type": "Point", "coordinates": [ 6.320406365722657, 46.316571024902352 ] } },
{ "type": "Feature", "properties": { "code": "240200634", "nom": "CC des Portes de la Thiérache" }, "geometry": { "type": "Point", "coordinates": [ 4.05781155810547, 49.702234426269534 ] } },
{ "type": "Feature", "properties": { "code": "200067122", "nom": "CC du Pays de Lafrançaise" }, "geometry": { "type": "Point", "coordinates": [ 1.301144329589844, 44.138893249511725 ] } },
{ "type": "Feature", "properties": { "code": "200067866", "nom": "CC Sèvre et Loire" }, "geometry": { "type": "Point", "coordinates": [ -1.2993524140625, 47.194186289062493 ] } },
{ "type": "Feature", "properties": { "code": "200067130", "nom": "CC de Puisaye-Forterre" }, "geometry": { "type": "Point", "coordinates": [ 3.142127782226562, 47.650992854492195 ] } },
{ "type": "Feature", "properties": { "code": "200067155", "nom": "CC Saint Affricain, Roquefort, Sept Vallons" }, "geometry": { "type": "Point", "coordinates": [ 2.815849608886718, 43.950903989746088 ] } },
{ "type": "Feature", "properties": { "code": "200067163", "nom": "CC Monts, Rance et Rougier" }, "geometry": { "type": "Point", "coordinates": [ 2.752830092773438, 43.82498989355468 ] } },
{ "type": "Feature", "properties": { "code": "200067171", "nom": "CC Aubrac, Carladez et Viadène" }, "geometry": { "type": "Point", "coordinates": [ 2.78250872265625, 44.739042019531254 ] } },
{ "type": "Feature", "properties": { "code": "200067197", "nom": "CC Monts d'Arrée Communauté" }, "geometry": { "type": "Point", "coordinates": [ -3.878160612792969, 48.361046786621088 ] } },
{ "type": "Feature", "properties": { "code": "200067205", "nom": "CA du Cotentin" }, "geometry": { "type": "Point", "coordinates": [ -1.666436705566406, 49.493183264160152 ] } },
{ "type": "Feature", "properties": { "code": "200067213", "nom": "CU du Grand Reims" }, "geometry": { "type": "Point", "coordinates": [ 4.185909125, 49.251270375 ] } },
{ "type": "Feature", "properties": { "code": "200067239", "nom": "CC des Luys en Béarn" }, "geometry": { "type": "Point", "coordinates": [ -0.383252263671875, 43.483951138671877 ] } },
{ "type": "Feature", "properties": { "code": "200067247", "nom": "CC Pleyben-Châteaulin-Porzay" }, "geometry": { "type": "Point", "coordinates": [ -3.97965606640625, 48.211409246093751 ] } },
{ "type": "Feature", "properties": { "code": "200067254", "nom": "CA Pau Béarn Pyrénées" }, "geometry": { "type": "Point", "coordinates": [ -0.390469217285156, 43.280297391113272 ] } },
{ "type": "Feature", "properties": { "code": "200067965", "nom": "CA de la Région de Compiègne et de la Basse Automne" }, "geometry": { "type": "Point", "coordinates": [ 2.8097545703125, 49.379973429687496 ] } },
{ "type": "Feature", "properties": { "code": "200072130", "nom": "CA du Pays de Meaux" }, "geometry": { "type": "Point", "coordinates": [ 2.886363862792968, 48.959031347167965 ] } },
{ "type": "Feature", "properties": { "code": "200067262", "nom": "CC du Haut Béarn" }, "geometry": { "type": "Point", "coordinates": [ -0.658032521484375, 43.087899658203121 ] } },
{ "type": "Feature", "properties": { "code": "200067288", "nom": "CC du Béarn des Gaves" }, "geometry": { "type": "Point", "coordinates": [ -0.909956708984375, 43.432675888671881 ] } },
{ "type": "Feature", "properties": { "code": "200067296", "nom": "CC du Nord Est Béarn" }, "geometry": { "type": "Point", "coordinates": [ -0.208818046386719, 43.365690196777351 ] } },
{ "type": "Feature", "properties": { "code": "200067304", "nom": "CC Serein et Armance" }, "geometry": { "type": "Point", "coordinates": [ 3.687539600585938, 48.032509192382811 ] } },
{ "type": "Feature", "properties": { "code": "200068112", "nom": "CC du Pays de Saverne" }, "geometry": { "type": "Point", "coordinates": [ 7.368505126464843, 48.732682791503905 ] } },
{ "type": "Feature", "properties": { "code": "240300566", "nom": "CC du Val de Cher" }, "geometry": { "type": "Point", "coordinates": [ 2.619840315429687, 46.47883547949219 ] } },
{ "type": "Feature", "properties": { "code": "200067346", "nom": "CA Pornic Agglo Pays de Retz" }, "geometry": { "type": "Point", "coordinates": [ -1.903527319824219, 47.10497673876953 ] } },
{ "type": "Feature", "properties": { "code": "247700057", "nom": "CA Melun Val de Seine" }, "geometry": { "type": "Point", "coordinates": [ 2.676836582031249, 48.534629683593757 ] } },
{ "type": "Feature", "properties": { "code": "200067361", "nom": "CC Grand-Figeac" }, "geometry": { "type": "Point", "coordinates": [ 1.903432250976562, 44.65475466699219 ] } },
{ "type": "Feature", "properties": { "code": "200067379", "nom": "CC Côtes de Champagne et Val de Saulx" }, "geometry": { "type": "Point", "coordinates": [ 4.770928651367187, 48.816145430664058 ] } },
{ "type": "Feature", "properties": { "code": "200067429", "nom": "CC Haut Nivernais - Val d'Yonne" }, "geometry": { "type": "Point", "coordinates": [ 3.401649795410155, 47.403210185058583 ] } },
{ "type": "Feature", "properties": { "code": "200067445", "nom": "CC Buëch-Dévoluy" }, "geometry": { "type": "Point", "coordinates": [ 5.88476940625, 44.598189156250001 ] } },
{ "type": "Feature", "properties": { "code": "200067452", "nom": "CC du Guillestrois et du Queyras" }, "geometry": { "type": "Point", "coordinates": [ 6.7669234453125, 44.706455679687508 ] } },
{ "type": "Feature", "properties": { "code": "200067460", "nom": "CC Loudéac Communauté - Bretagne Centre" }, "geometry": { "type": "Point", "coordinates": [ -2.613467322265625, 48.217253400390625 ] } },
{ "type": "Feature", "properties": { "code": "200067478", "nom": "CC Comtal Lot et Truyère" }, "geometry": { "type": "Point", "coordinates": [ 2.684019526367187, 44.534524963867185 ] } },
{ "type": "Feature", "properties": { "code": "200067486", "nom": "CC Bouzonvillois-Trois Frontières" }, "geometry": { "type": "Point", "coordinates": [ 6.508104955566405, 49.319668493652344 ] } },
{ "type": "Feature", "properties": { "code": "200067502", "nom": "CA Saint-Avold Synergie" }, "geometry": { "type": "Point", "coordinates": [ 6.752726452148439, 49.033645704101559 ] } },
{ "type": "Feature", "properties": { "code": "200067544", "nom": "CC Creuse Confluence" }, "geometry": { "type": "Point", "coordinates": [ 2.21786285546875, 46.272735363281242 ] } },
{ "type": "Feature", "properties": { "code": "245801063", "nom": "CC Loire et Allier" }, "geometry": { "type": "Point", "coordinates": [ 3.169075420898437, 46.867054051757812 ] } },
{ "type": "Feature", "properties": { "code": "200067593", "nom": "CC Marche et Combraille en Aquitaine" }, "geometry": { "type": "Point", "coordinates": [ 2.458484343750001, 46.007952156249985 ] } },
{ "type": "Feature", "properties": { "code": "200067627", "nom": "CC Billom Communauté" }, "geometry": { "type": "Point", "coordinates": [ 3.417132189453125, 45.694779294921872 ] } },
{ "type": "Feature", "properties": { "code": "200069698", "nom": "CC Mâconnais - Tournugeois" }, "geometry": { "type": "Point", "coordinates": [ 4.860437715820313, 46.49654073925781 ] } },
{ "type": "Feature", "properties": { "code": "200067635", "nom": "CA Clisson Sèvre et Maine Agglo" }, "geometry": { "type": "Point", "coordinates": [ -1.381023983886719, 47.089567867675783 ] } },
{ "type": "Feature", "properties": { "code": "200067643", "nom": "CC Meurthe Mortagne Moselle" }, "geometry": { "type": "Point", "coordinates": [ 6.368537093750001, 48.472642781250009 ] } },
{ "type": "Feature", "properties": { "code": "200067650", "nom": "CC Houve - Pays Boulageois" }, "geometry": { "type": "Point", "coordinates": [ 6.492426553222657, 49.185334719238284 ] } },
{ "type": "Feature", "properties": { "code": "245900428", "nom": "CU de Dunkerque" }, "geometry": { "type": "Point", "coordinates": [ 2.190303909179687, 50.978339782226556 ] } },
{ "type": "Feature", "properties": { "code": "200067668", "nom": "CC de la Cléry, du Betz et de l'Ouanne" }, "geometry": { "type": "Point", "coordinates": [ 2.961057344238282, 47.999014823730469 ] } },
{ "type": "Feature", "properties": { "code": "245900758", "nom": "CC Flandre Lys" }, "geometry": { "type": "Point", "coordinates": [ 2.784597922851562, 50.631077499023434 ] } },
{ "type": "Feature", "properties": { "code": "200071058", "nom": "CC Les Avant-Monts" }, "geometry": { "type": "Point", "coordinates": [ 3.181246430664062, 43.504097696289072 ] } },
{ "type": "Feature", "properties": { "code": "200067676", "nom": "CC Canaux et Forêts en Gâtinais" }, "geometry": { "type": "Point", "coordinates": [ 2.493320699707032, 47.918045166503902 ] } },
{ "type": "Feature", "properties": { "code": "200067684", "nom": "CA Epernay, Coteaux et Plaine de Champagne" }, "geometry": { "type": "Point", "coordinates": [ 4.007758333007814, 48.91868931933594 ] } },
{ "type": "Feature", "properties": { "code": "200067692", "nom": "CC Tannay-Brinon-Corbigny" }, "geometry": { "type": "Point", "coordinates": [ 3.6443481328125, 47.292712179687499 ] } },
{ "type": "Feature", "properties": { "code": "200067700", "nom": "CC Sud Nivernais" }, "geometry": { "type": "Point", "coordinates": [ 3.470250316894532, 46.811017152832029 ] } },
{ "type": "Feature", "properties": { "code": "200067742", "nom": "CC Serre-Ponçon" }, "geometry": { "type": "Point", "coordinates": [ 6.47547301171875, 44.568182660156246 ] } },
{ "type": "Feature", "properties": { "code": "200069821", "nom": "CA Fécamp Caux Littoral Agglomération" }, "geometry": { "type": "Point", "coordinates": [ 0.505506125, 49.763521125 ] } },
{ "type": "Feature", "properties": { "code": "200067759", "nom": "CC Vallées et Plateau d'Ardenne" }, "geometry": { "type": "Point", "coordinates": [ 4.555489218749999, 49.884074656249993 ] } },
{ "type": "Feature", "properties": { "code": "200067767", "nom": "CC du Royans-Vercors" }, "geometry": { "type": "Point", "coordinates": [ 5.393203646972657, 44.948941745605453 ] } },
{ "type": "Feature", "properties": { "code": "200067783", "nom": "CC de Hanau-La Petite Pierre" }, "geometry": { "type": "Point", "coordinates": [ 7.409496164550781, 48.878727213378909 ] } },
{ "type": "Feature", "properties": { "code": "246000129", "nom": "CC du Liancourtois" }, "geometry": { "type": "Point", "coordinates": [ 2.458242645507813, 49.327220079101551 ] } },
{ "type": "Feature", "properties": { "code": "200071074", "nom": "CC Les Portes de l'Ile de France" }, "geometry": { "type": "Point", "coordinates": [ 1.521557572265625, 49.022794787109383 ] } },
{ "type": "Feature", "properties": { "code": "200067791", "nom": "CA L'Agglo Foix-Varilhes" }, "geometry": { "type": "Point", "coordinates": [ 1.604248153320313, 42.985030860351564 ] } },
{ "type": "Feature", "properties": { "code": "200023620", "nom": "CC de la Gascogne Toulousaine" }, "geometry": { "type": "Point", "coordinates": [ 1.055949478515625, 43.599489861328117 ] } },
{ "type": "Feature", "properties": { "code": "200067817", "nom": "CC Saône-Beaujolais" }, "geometry": { "type": "Point", "coordinates": [ 4.620955044921875, 46.171965291015624 ] } },
{ "type": "Feature", "properties": { "code": "200026573", "nom": "CC Haut-Jura Saint-Claude" }, "geometry": { "type": "Point", "coordinates": [ 5.845817713378906, 46.364120700683586 ] } },
{ "type": "Feature", "properties": { "code": "200067825", "nom": "CA Gap-Tallard-Durance" }, "geometry": { "type": "Point", "coordinates": [ 5.991351931640625, 44.447213630859373 ] } },
{ "type": "Feature", "properties": { "code": "200067841", "nom": "CC de l'Alsace Bossue" }, "geometry": { "type": "Point", "coordinates": [ 7.143867690429689, 48.925122745117186 ] } },
{ "type": "Feature", "properties": { "code": "200067874", "nom": "CA de Haguenau" }, "geometry": { "type": "Point", "coordinates": [ 7.871596087890624, 48.824470240234376 ] } },
{ "type": "Feature", "properties": { "code": "200067882", "nom": "CC Bazois Loire Morvan" }, "geometry": { "type": "Point", "coordinates": [ 3.75583671484375, 46.883845589843752 ] } },
{ "type": "Feature", "properties": { "code": "200067890", "nom": "CC Morvan Sommets et Grands Lacs" }, "geometry": { "type": "Point", "coordinates": [ 3.940843106445313, 47.095877229492196 ] } },
{ "type": "Feature", "properties": { "code": "200069482", "nom": "CC des Campagnes de l'Artois" }, "geometry": { "type": "Point", "coordinates": [ 2.5470154609375, 50.284380148437492 ] } },
{ "type": "Feature", "properties": { "code": "200067908", "nom": "CC Amognes Coeur du Nivernais" }, "geometry": { "type": "Point", "coordinates": [ 3.440379725585937, 47.043930958007792 ] } },
{ "type": "Feature", "properties": { "code": "200067916", "nom": "CC Coeur de Loire" }, "geometry": { "type": "Point", "coordinates": [ 3.035767821777345, 47.35423869189453 ] } },
{ "type": "Feature", "properties": { "code": "200067924", "nom": "CC du Canton d'Erstein" }, "geometry": { "type": "Point", "coordinates": [ 7.649693922851562, 48.383630446289075 ] } },
{ "type": "Feature", "properties": { "code": "200067932", "nom": "CA Golfe du Morbihan - Vannes Agglomération" }, "geometry": { "type": "Point", "coordinates": [ -2.66285115234375, 47.68433826171875 ] } },
{ "type": "Feature", "properties": { "code": "200067940", "nom": "CC Couserans-Pyrénées" }, "geometry": { "type": "Point", "coordinates": [ 1.220889465820313, 42.886821895507815 ] } },
{ "type": "Feature", "properties": { "code": "200067957", "nom": "CC Haut Chemin - Pays de Pange" },