{
"type": "FeatureCollection",
"name": "analysis.regions_labels",
"crs": { "type": "name", "properties": { "name": "urn:ogc:def:crs:OGC:1.3:CRS84" } },
"features": [
{ "type": "Feature", "properties": { "code": "01", "nom": "Guadeloupe" }, "geometry": { "type": "Point", "coordinates": [ -61.666645425781255, 16.088452878906249 ] } },
{ "type": "Feature", "properties": { "code": "02", "nom": "Martinique" }, "geometry": { "type": "Point", "coordinates": [ -61.075577618164068, 14.722458329101562 ] } },
{ "type": "Feature", "properties": { "code": "03", "nom": "Guyane" }, "geometry": { "type": "Point", "coordinates": [ -53.005921100097652, 4.031101547363282 ] } },
{ "type": "Feature", "properties": { "code": "28", "nom": "Normandie" }, "geometry": { "type": "Point", "coordinates": [ 0.898267939941406, 49.315039477050782 ] } },
{ "type": "Feature", "properties": { "code": "94", "nom": "Corse" }, "geometry": { "type": "Point", "coordinates": [ 9.114338924804686, 42.240980901367188 ] } },
{ "type": "Feature", "properties": { "code": "984", "nom": "Terres australes et antarctiques françaises" }, "geometry": { "type": "Point", "coordinates": [ 139.0, -75.741256 ] } },
{ "type": "Feature", "properties": { "code": "987", "nom": "Polynésie française" }, "geometry": { "type": "Point", "coordinates": [ -149.447276351562493, -17.651938742187497 ] } },
{ "type": "Feature", "properties": { "code": "986", "nom": "Wallis et Futuna" }, "geometry": { "type": "Point", "coordinates": [ -176.196734486328097, -13.267981806640625 ] } },
{ "type": "Feature", "properties": { "code": "11", "nom": "Île-de-France" }, "geometry": { "type": "Point", "coordinates": [ 2.707952891113282, 48.628170645996093 ] } },
{ "type": "Feature", "properties": { "code": "04", "nom": "La Réunion" }, "geometry": { "type": "Point", "coordinates": [ 55.505104253906246, -21.108027113281249 ] } },
{ "type": "Feature", "properties": { "code": "06", "nom": "Mayotte" }, "geometry": { "type": "Point", "coordinates": [ 45.160777605468752, -12.785099667968748 ] } },
{ "type": "Feature", "properties": { "code": "24", "nom": "Centre-Val de Loire" }, "geometry": { "type": "Point", "coordinates": [ 1.632762353515625, 47.397652072265615 ] } },
{ "type": "Feature", "properties": { "code": "32", "nom": "Hauts-de-France" }, "geometry": { "type": "Point", "coordinates": [ 2.646725977539063, 49.926675618164062 ] } },
{ "type": "Feature", "properties": { "code": "27", "nom": "Bourgogne-Franche-Comté" }, "geometry": { "type": "Point", "coordinates": [ 4.395953521484376, 47.145830736328115 ] } },
{ "type": "Feature", "properties": { "code": "978", "nom": "Saint-Martin" }, "geometry": { "type": "Point", "coordinates": [ -63.043747967773434, 18.084200006835932 ] } },
{ "type": "Feature", "properties": { "code": "44", "nom": "Grand Est" }, "geometry": { "type": "Point", "coordinates": [ 4.792396761230471, 48.896626132324222 ] } },
{ "type": "Feature", "properties": { "code": "52", "nom": "Pays de la Loire" }, "geometry": { "type": "Point", "coordinates": [ -0.394336278320313, 47.815160973632807 ] } },
{ "type": "Feature", "properties": { "code": "53", "nom": "Bretagne" }, "geometry": { "type": "Point", "coordinates": [ -2.423728021484374, 48.038987732421866 ] } },
{ "type": "Feature", "properties": { "code": "75", "nom": "Nouvelle-Aquitaine" }, "geometry": { "type": "Point", "coordinates": [ 0.317007845703125, 45.542429990234382 ] } },
{ "type": "Feature", "properties": { "code": "76", "nom": "Occitanie" }, "geometry": { "type": "Point", "coordinates": [ 2.160692078613282, 43.571088043457031 ] } },
{ "type": "Feature", "properties": { "code": "84", "nom": "Auvergne-Rhône-Alpes" }, "geometry": { "type": "Point", "coordinates": [ 4.616717563964845, 45.272291599121097 ] } },
{ "type": "Feature", "properties": { "code": "93", "nom": "Provence-Alpes-Côte d'Azur" }, "geometry": { "type": "Point", "coordinates": [ 6.3340385, 43.970965 ] } },
{ "type": "Feature", "properties": { "code": "975", "nom": "Saint-Pierre-et-Miquelon" }, "geometry": { "type": "Point", "coordinates": [ -56.316586747558581, 47.028016733886723 ] } },
{ "type": "Feature", "properties": { "code": "977", "nom": "Saint-Barthélemy" }, "geometry": { "type": "Point", "coordinates": [ -62.816965536621097, 17.898317471191405 ] } },
{ "type": "Feature", "properties": { "code": "988", "nom": "Nouvelle-Calédonie" }, "geometry": { "type": "Point", "coordinates": [ 165.109599947265622, -21.085323775390627 ] } },
{ "type": "Feature", "properties": { "code": "989", "nom": "Île de Clipperton" }, "geometry": { "type": "Point", "coordinates": [ -109.213951406738261, 10.301032933105468 ] } }
]
}
